[
 {
  "city": "Changanacherry", 
  "name": "ICICI Bank Ltd. - Changanacherry", 
  "locality": "Kavalam Building", 
  "pincode": "686101", 
  "long": "76.54989624023440", 
  "landmark": "", 
  "state": "Kerala", 
  "address": "M C Road, Kavala, Kavalam Building, Changanacherry, Kerala, 686101", 
  "lat": "9.45442962646484", 
  "sublocality": "M C Road, Kavala"
 }, 
 {
  "city": "Vadodara", 
  "name": "ICICI Bank Ltd. - Vadodara - Vasna", 
  "locality": "Shri Nidhi Gallery, Bina Nagar", 
  "pincode": "390015", 
  "long": "73.16022491455080", 
  "landmark": "", 
  "state": "Gujarat", 
  "address": "Vasana Road, Shri Nidhi Gallery, Bina Nagar, Vadodara, Gujarat, 390015", 
  "lat": "22.29503059387210", 
  "sublocality": "Vasana Road"
 }, 
 {
  "city": "Koothanallur", 
  "name": "ICICI Bank Ltd. - Koothanallur", 
  "locality": "Thiruvaur District", 
  "pincode": "614101", 
  "long": "79.51889801025390", 
  "landmark": "", 
  "state": "Tamil Nadu", 
  "address": "No. 8, Hospital Road, Thiruvaur District, Koothanallur, Tamil Nadu, 614101", 
  "lat": "10.71829986572270", 
  "sublocality": "No. 8, Hospital Road"
 }, 
 {
  "city": "Trichy", 
  "name": "ICICI Bank Ltd. - Trichy - Cantonment", 
  "locality": "Cantonment Trichy", 
  "pincode": "620001", 
  "long": "78.683105468750", 
  "landmark": "", 
  "state": "Tamil Nadu", 
  "address": "Esspee Complex, 52 Heber Road, Cantonment Trichy, Trichy, Tamil Nadu, 620001", 
  "lat": "10.80764770507810", 
  "sublocality": "Esspee Complex, 52 Heber Road"
 }, 
 {
  "city": "Siruvachur", 
  "name": "ICICI Bank Ltd. - Siruvachoor", 
  "locality": "Perambalur District", 
  "pincode": "621113", 
  "long": "78.75589752197270", 
  "landmark": "", 
  "state": "Tamil Nadu", 
  "address": "Perumal Koil Street, Siruvachoor Post, Perambalur District, Siruvachur, Tamil Nadu, 621113", 
  "lat": "11.63710021972660", 
  "sublocality": "Perumal Koil Street, Siruvachoor Post"
 }, 
 {
  "city": "Melanikulikudikadu", 
  "name": "ICICI Bank Ltd. - Melanikuli Kudikadu", 
  "locality": "Ariyalur District", 
  "pincode": "612903", 
  "long": "79.48793029785160", 
  "landmark": "", 
  "state": "Tamil Nadu", 
  "address": "3/107 A Bazaar Street, Ariyalur District, Melanikulikudikadu, Tamil Nadu, 612903", 
  "lat": "11.27703857421880", 
  "sublocality": "3/107 A Bazaar Street"
 }, 
 {
  "city": "Reddiarchatram", 
  "name": "ICICI Bank Ltd. - Reddiarchatram", 
  "locality": "Reddiarchatram. Dindigul District", 
  "pincode": "624622", 
  "long": "77.86710357666020", 
  "landmark": "", 
  "state": "Tamil Nadu", 
  "address": "3/39-B, Main Road, Reddiarchatram. Dindigul District, Reddiarchatram, Tamil Nadu, 624622", 
  "lat": "10.43029975891110", 
  "sublocality": "3/39-B, Main Road"
 }, 
 {
  "city": "Tirpur", 
  "name": "ICICI Bank Ltd. - Tiruppur", 
  "locality": "3rd Street, Indira Nagar, Avinashi Road, Tiruppur", 
  "pincode": "641603", 
  "long": "77.33209991455080", 
  "landmark": "", 
  "state": "Tamil Nadu", 
  "address": "Aepc Building, Ground Floor, 3/1, 3rd Street, Indira Nagar, Avinashi Road, Tiruppur, Tirpur, Tamil Nadu, 641603", 
  "lat": "11.11509990692140", 
  "sublocality": "Aepc Building, Ground Floor, 3/1"
 }, 
 {
  "city": "Nagercoil", 
  "name": "ICICI Bank Ltd. - Nagercoil", 
  "locality": "Kanyakumari District", 
  "pincode": "629002", 
  "long": "77.54671478271480", 
  "landmark": "", 
  "state": "Tamil Nadu", 
  "address": "149, Cape Road, Kanyakumari District, Nagercoil, Tamil Nadu, 629002", 
  "lat": "8.08773422241211", 
  "sublocality": "149, Cape Road"
 }, 
 {
  "city": "Konerirajapuram", 
  "name": "ICICI Bank Ltd. - Konenirajapuram", 
  "locality": "168, West Street", 
  "pincode": "612201", 
  "long": "79.01450347900390", 
  "landmark": "", 
  "state": "Tamil Nadu", 
  "address": "168, West Street, Konerirajapuram, Tamil Nadu, 612201", 
  "lat": "10.85659980773930", 
  "sublocality": ""
 }, 
 {
  "city": "Chennai", 
  "name": "ICICI Bank Ltd. - Chennai - Anna Nagar", 
  "locality": "3rd Avenue Anna Nagar", 
  "pincode": "600102", 
  "long": "80.217903137207", 
  "landmark": "", 
  "state": "Tamil Nadu", 
  "address": "3rd Avenue Anna Nagar, Chennai, Tamil Nadu, 600102", 
  "lat": "13.08940029144290", 
  "sublocality": ""
 }, 
 {
  "city": "Madurai", 
  "name": "ICICI Bank Ltd. - Madurai - Kochadai", 
  "locality": "D.No.196, Subasri Arun Complex", 
  "pincode": "625010", 
  "long": "78.09359741210940", 
  "landmark": "", 
  "state": "Tamil Nadu", 
  "address": "Bye Pass Road, D.No.196, Subasri Arun Complex, Madurai, Tamil Nadu, 625010", 
  "lat": "9.92288017272949", 
  "sublocality": "Bye Pass Road"
 }, 
 {
  "city": "Laksmikantapur", 
  "name": "ICICI Bank Ltd. - Laksmikantapur", 
  "locality": "Vill - Mandirbazaar, 24 P(S)", 
  "pincode": "743343", 
  "long": "88.31763458251950", 
  "landmark": "", 
  "state": "West Bengal", 
  "address": "Bijoygunj Bazaar, Vill - Mandirbazaar, 24 P(S), Laksmikantapur, West Bengal, 743343", 
  "lat": "22.10624694824220", 
  "sublocality": "Bijoygunj Bazaar"
 }, 
 {
  "city": "Palej", 
  "name": "ICICI Bank Ltd.-  Palej ", 
  "locality": "Dargah Road", 
  "pincode": "392220", 
  "long": "73.07949066162110", 
  "landmark": "Beside Indane Gas", 
  "state": "Gujarat", 
  "address": "Madani Chambers, Beside Indane Gas, Dargah Road, Palej, Gujarat, 392220", 
  "lat": "21.92194366455080", 
  "sublocality": "Madani Chambers, "
 }, 
 {
  "city": "Kamrup", 
  "name": "ICICI Bank Ltd. - Guwahati - Sualkuchi", 
  "locality": "Sualkuchi", 
  "pincode": "781003", 
  "long": "91.57061004638670", 
  "landmark": "Opposite Shankardev Dham", 
  "state": "Assam", 
  "address": "Opposite Shankardev Dham, Sualkuchi, Kamrup, Assam, 781003", 
  "lat": "26.16718292236330", 
  "sublocality": ""
 }, 
 {
  "city": "Kothamangalam", 
  "name": "ICICI Bank Ltd. - Adimali", 
  "locality": "Adimaly Po, Idukki", 
  "pincode": "685561", 
  "long": "76.98220825195310", 
  "landmark": "", 
  "state": "Kerala", 
  "address": "Sreeragam Building, Adimaly Po, Idukki, Kothamangalam, Kerala, 685561", 
  "lat": "9.84752655029297", 
  "sublocality": "Sreeragam Building"
 }, 
 {
  "city": "Jammu", 
  "name": "ICICI Bank Ltd. - Nagrota", 
  "locality": "Kandoli, Nagrota", 
  "pincode": "181221", 
  "long": "74.918083190918", 
  "landmark": "Opposite Girls High Secondary SchoolNear Police Station", 
  "state": "Jammu And Kashmir", 
  "address": "Opposite Girls High Secondary School, NH  1, Near Police Station, Kandoli, Nagrota, Jammu, Jammu And Kashmir, 181221", 
  "lat": "32.80007171630860", 
  "sublocality": ", NH  1, "
 }, 
 {
  "city": "Tarakeshwar", 
  "name": "ICICI Bank Ltd. - Tarakeshwar", 
  "locality": "Sahapur Chawalputti", 
  "pincode": "712410", 
  "long": "88.009521484375", 
  "landmark": "", 
  "state": "West Bengal", 
  "address": "TARAKESWAR BRANCH, Sahapur Chawalputti, Tarakeshwar, West Bengal, 712410", 
  "lat": "22.88593673706050", 
  "sublocality": "TARAKESWAR BRANCH"
 }, 
 {
  "city": "Doda", 
  "name": "ICICI Bank Ltd. - Doda", 
  "locality": "0", 
  "pincode": "182202", 
  "long": "75.54472351074220", 
  "landmark": "Near Dak Bangla", 
  "state": "Jammu And Kashmir", 
  "address": "Near Dak Bangla, 0, Doda, Jammu And Kashmir, 182202", 
  "lat": "33.13962173461910", 
  "sublocality": ""
 }, 
 {
  "city": "Pune", 
  "name": "ICICI Bank Ltd. - Pune - Navi Peth", 
  "locality": "Ahilya Shikshan Mandal, Navi Peth", 
  "pincode": "411030", 
  "long": "73.84411621093750", 
  "landmark": "", 
  "state": "Maharashtra", 
  "address": "TPS No.3, CTS No.212 / 52, Ahilya Shikshan Mandal, Navi Peth, Pune, Maharashtra, 411030", 
  "lat": "18.50704002380370", 
  "sublocality": "TPS No.3, CTS No.212 / 52"
 }, 
 {
  "city": "Faridabad", 
  "name": "ICICI Bank Ltd. - Faridabad - Sainik Colony", 
  "locality": ", Sector  49", 
  "pincode": "121001", 
  "long": "77.27254486083980", 
  "landmark": "Near Dav Public School", 
  "state": "Haryana", 
  "address": "Scf-67 And 68, Sainik Colony, Near Dav Public School, Sector  49, Faridabad, Haryana, 121001", 
  "lat": "28.39832496643070", 
  "sublocality": "Scf-67 And 68, Sainik Colony"
 }, 
 {
  "city": "Khliehriat", 
  "name": "ICICI Bank Ltd. - Khliehriat", 
  "locality": "0", 
  "pincode": "793201", 
  "long": "92.366813659668", 
  "landmark": "", 
  "state": "Meghalaya", 
  "address": "Building Of Klin Lyngdoh, 0, Khliehriat, Meghalaya, 793201", 
  "lat": "25.359842300415", 
  "sublocality": "Building Of Klin Lyngdoh"
 }, 
 {
  "city": "Mayiladuthurai", 
  "name": "ICICI Bank Ltd. - Mayiladuthurai - Mahadhana Street", 
  "locality": "Mahadhana Street", 
  "pincode": "609001", 
  "long": "79.653205871582", 
  "landmark": "", 
  "state": "Tamil Nadu", 
  "address": "RMS Arcade, First Floor, New No. 54, Mahadhana Street, Mayiladuthurai, Tamil Nadu, 609001", 
  "lat": "11.10341167449950", 
  "sublocality": "RMS Arcade, First Floor, New No. 54"
 }, 
 {
  "city": "Leh", 
  "name": "ICICI Bank Ltd. - Leh Town", 
  "locality": "0", 
  "pincode": "194104", 
  "long": "77.54386138916020", 
  "landmark": "", 
  "state": "Jammu And Kashmir", 
  "address": "Adjacent To Fire And Fury Shopping Complex, 0, Leh, Jammu And Kashmir, 194104", 
  "lat": "34.14253616333010", 
  "sublocality": "Adjacent To Fire And Fury Shopping Complex"
 }, 
 {
  "city": "Charkhi Dadri", 
  "name": "ICICI Bank Ltd. - Charkhi Dadri", 
  "locality": "", 
  "pincode": "127306", 
  "long": "76.27023315429690", 
  "landmark": "Near BUS Stand", 
  "state": "Haryana", 
  "address": "Loharu Road, Near BUS Stand, Charkhi Dadri, Haryana, 127306", 
  "lat": "28.59622955322270", 
  "sublocality": "Loharu Road"
 }, 
 {
  "city": "Jalna", 
  "name": "ICICI Bank Ltd. - Jalna - Ambad", 
  "locality": ", Ambad Beed Road, Taluka Ambad", 
  "pincode": "431204", 
  "long": "75.78501892089840", 
  "landmark": "Near Lic Office", 
  "state": "Maharashtra", 
  "address": "Siddhivinayak Towers, Shop No 65, Near Lic Office, Ambad Beed Road, Taluka Ambad, Jalna, Maharashtra, 431204", 
  "lat": "19.61426925659180", 
  "sublocality": "Siddhivinayak Towers, Shop No 65"
 }, 
 {
  "city": "Udaipur", 
  "name": "ICICI Bank Ltd. - Meri Dhani", 
  "locality": "Block :Sarada", 
  "pincode": "313039", 
  "long": "73.82502746582030", 
  "landmark": "", 
  "state": "Rajasthan", 
  "address": "Village :Meri Dhani, Block :Sarada, Udaipur, Rajasthan, 313039", 
  "lat": "24.14245223999020", 
  "sublocality": "Village :Meri Dhani"
 }, 
 {
  "city": "Malharpeth", 
  "name": "ICICI Bank Ltd. - Malharpeth", 
  "locality": "District: Kolhapur", 
  "pincode": "416205", 
  "long": "74.05468750", 
  "landmark": "", 
  "state": "Maharashtra", 
  "address": "Vill: Malharpeth, Block: Panhala, District: Kolhapur, Malharpeth, Maharashtra, 416205", 
  "lat": "16.70495986938480", 
  "sublocality": "Vill: Malharpeth, Block: Panhala"
 }, 
 {
  "city": "Shyamnagar", 
  "name": "ICICI Bank Ltd. - Shyamnagar", 
  "locality": "Arghya, 268 , ,Dist - 24 Parganas (n)", 
  "pincode": "743133", 
  "long": "88.379768371582", 
  "landmark": "Near Pinkal More", 
  "state": "West Bengal", 
  "address": "Ghoshpara Road, Arghya, 268 , Near Pinkal More,Dist - 24 Parganas (n), Shyamnagar, West Bengal, 743133", 
  "lat": "22.825870513916", 
  "sublocality": "Ghoshpara Road"
 }, 
 {
  "city": "Nagpur", 
  "name": "ICICI Bank Ltd. - Nagpur - Pratap Nagar", 
  "locality": "Dindayal Nagar, Pratap Nagar Sq.", 
  "pincode": "440022", 
  "long": "79.04685211181640", 
  "landmark": "Near Padole Hospital", 
  "state": "Maharashtra", 
  "address": "Near Padole Hospital,, Dindayal Nagar, Pratap Nagar Sq., Nagpur, Maharashtra, 440022", 
  "lat": "21.112606048584", 
  "sublocality": ","
 }, 
 {
  "city": "Pune", 
  "name": "ICICI Bank Ltd. - Pune - Nigdi", 
  "locality": "Sector No 27, Plot No 479, , ", 
  "pincode": "411044", 
  "long": "73.77069854736330", 
  "landmark": "Opposite Camp Education High SchoolNear Bhel Chowk", 
  "state": "Maharashtra", 
  "address": "Pradhikaran, Nigdi, Sector No 27, Plot No 479, Opposite Camp Education High School, Near Bhel Chowk, Pune, Maharashtra, 411044", 
  "lat": "18.65369987487790", 
  "sublocality": "Pradhikaran, Nigdi"
 }, 
 {
  "city": "Barh", 
  "name": "ICICI Bank Ltd. - Barh", 
  "locality": "Basudev kutir,Dist:- Patna", 
  "pincode": "803213", 
  "long": "85.70731353759770", 
  "landmark": "", 
  "state": "Bihar", 
  "address": "Station road, Basudev kutir,Dist:- Patna, Barh, Bihar, 803213", 
  "lat": "25.46334648132320", 
  "sublocality": "Station road"
 }, 
 {
  "city": "Nausar", 
  "name": "ICICI Bank Ltd. - Nausar", 
  "locality": "Beniwal Tower, District - Jodhpur", 
  "pincode": "342303", 
  "long": "72.806999206543", 
  "landmark": "", 
  "state": "Rajasthan", 
  "address": "Village - Nausar, Tehsil - Osian, Beniwal Tower, District - Jodhpur, Nausar, Rajasthan, 342303", 
  "lat": "26.90710067749020", 
  "sublocality": "Village - Nausar, Tehsil - Osian"
 }, 
 {
  "city": "Bhadra", 
  "name": "ICICI Bank Ltd. - 12 MSR", 
  "locality": "Post Moonsari, Tehsil - Bhadra, District - Hanumangarh State", 
  "pincode": "335504", 
  "long": "75.04100036621090", 
  "landmark": "", 
  "state": "Rajasthan", 
  "address": "Village-12 MSR, Post Moonsari, Tehsil - Bhadra, District - Hanumangarh State, Bhadra, Rajasthan, 335504", 
  "lat": "29.16279983520510", 
  "sublocality": "Village-12 MSR"
 }, 
 {
  "city": "Shedshal", 
  "name": "ICICI Bank Ltd. - Shedshal", 
  "locality": "Shirol, Kolhapur", 
  "pincode": "416105", 
  "long": "74.66999816894530", 
  "landmark": "", 
  "state": "Maharashtra", 
  "address": "Shedshal Gram Vividha Vikas Karyakari Seva Society Limited, Mal Bhag, Shirol, Kolhapur, Shedshal, Maharashtra, 416105", 
  "lat": "16.69729995727540", 
  "sublocality": "Shedshal Gram Vividha Vikas Karyakari Seva Society Limited, Mal Bhag"
 }, 
 {
  "city": "Hitani", 
  "name": "ICICI Bank Ltd. - Hitani", 
  "locality": "Gadhinglaj, Kolhapur", 
  "pincode": "416501", 
  "long": "74.45510101318360", 
  "landmark": "", 
  "state": "Maharashtra", 
  "address": "Shri Basveshwar Dudh Sanstha, Gadhinglaj, Kolhapur, Hitani, Maharashtra, 416501", 
  "lat": "16.22699928283690", 
  "sublocality": "Shri Basveshwar Dudh Sanstha"
 }, 
 {
  "city": "Narlapur", 
  "name": "ICICI Bank Ltd. - Narlapur", 
  "locality": "Narlapur Village, Ramyampet Mandal", 
  "pincode": "502102", 
  "long": "78.540397644043", 
  "landmark": "", 
  "state": "Telangana", 
  "address": "Narlapur Village, Ramyampet Mandal, Narlapur, Telangana, 502102", 
  "lat": "18.074499130249", 
  "sublocality": ""
 }, 
 {
  "city": "Laxminagar", 
  "name": "ICICI Bank Ltd. - Laxminagar", 
  "locality": "Laxminagar Village, Papannapet Mandal", 
  "pincode": "502125", 
  "long": "78.16600036621090", 
  "landmark": "", 
  "state": "Telangana", 
  "address": "Laxminagar Village, Papannapet Mandal, Laxminagar, Telangana, 502125", 
  "lat": "18.04240036010740", 
  "sublocality": ""
 }, 
 {
  "city": "Kollampalli", 
  "name": "ICICI Bank Ltd. - Kollampalli", 
  "locality": "Kollampalli Village, Narayanpet Mandal", 
  "pincode": "509205", 
  "long": "77.631103515625", 
  "landmark": "", 
  "state": "Telangana", 
  "address": "Kollampalli Village, Narayanpet Mandal, Kollampalli, Telangana, 509205", 
  "lat": "16.68059921264650", 
  "sublocality": ""
 }, 
 {
  "city": "Sangli", 
  "name": "ICICI Bank Ltd. - Dhawali", 
  "locality": "Grampanchayat No -628,Tal:-Walva,Dist .Sangli", 
  "pincode": "416302", 
  "long": "79.04888153076170", 
  "landmark": "Opposite Dr S R Patil Hospital", 
  "state": "Maharashtra", 
  "address": "Opposite Dr S R Patil Hospital, Grampanchayat No -628,Tal:-Walva,Dist .Sangli, Sangli, Maharashtra, 416302", 
  "lat": "21.112964630127", 
  "sublocality": ""
 }, 
 {
  "city": "Shirwal", 
  "name": "ICICI Bank Ltd. - Shirwal", 
  "locality": "Gat No.344B,Kamala Ruia Nagar,A/p", 
  "pincode": "412801", 
  "long": "73.976921081543", 
  "landmark": "", 
  "state": "Maharashtra", 
  "address": "Shop No.1 to 6,Amrut Vishwa, Gat No.344B,Kamala Ruia Nagar,A/p, Shirwal, Maharashtra, 412801", 
  "lat": "18.14838218688960", 
  "sublocality": "Shop No.1 to 6,Amrut Vishwa"
 }, 
 {
  "city": "Marcela", 
  "name": "ICICI Bank Ltd. - Marcela", 
  "locality": "House No 327", 
  "pincode": "403106", 
  "long": "73.96244049072270", 
  "landmark": "", 
  "state": "Goa", 
  "address": "Deulwada Marcela Ponda, House No 327, Marcela, Goa, 403106", 
  "lat": "15.51594066619870", 
  "sublocality": "Deulwada Marcela Ponda"
 }, 
 {
  "city": "Hili", 
  "name": "ICICI Bank Ltd. - Hili", 
  "locality": "Hili Bazar, , District - Dakshin Dinajpur", 
  "pincode": "733126", 
  "long": "89.00478363037110", 
  "landmark": "Near Hili Post Office", 
  "state": "West Bengal", 
  "address": "Post Office & Police Station - Hili, Hili Bazar, Near Hili Post Office, District - Dakshin Dinajpur, Hili, West Bengal, 733126", 
  "lat": "25.27908515930180", 
  "sublocality": "Post Office & Police Station - Hili"
 }, 
 {
  "city": "Duburi", 
  "name": "ICICI Bank Ltd. - Duburi", 
  "locality": "Kalinga Nagar", 
  "pincode": "755026", 
  "long": "85.98522949218750", 
  "landmark": "Near Kapileswar High School", 
  "state": "Orissa", 
  "address": "Near Kapileswar High School, Kalinga Nagar, Duburi, Orissa, 755026", 
  "lat": "20.99537086486820", 
  "sublocality": ""
 }, 
 {
  "city": "Jandiala Guru", 
  "name": "ICICI Bank Ltd. - Jandiala Guru", 
  "locality": "Jyotisar Colony, ", 
  "pincode": "143115", 
  "long": "75.02980041503910", 
  "landmark": "Opposite Khaira Palace", 
  "state": "Punjab", 
  "address": "Sarai Road, Jyotisar Colony, Opposite Khaira Palace, Jandiala Guru, Punjab, 143115", 
  "lat": "31.56089973449710", 
  "sublocality": "Sarai Road"
 }, 
 {
  "city": "Paithan", 
  "name": "ICICI Bank Ltd. - Paithan", 
  "locality": ",Paithan Dist", 
  "pincode": "431107", 
  "long": "75.38445281982420", 
  "landmark": "Near Devi Mandir", 
  "state": "Maharashtra", 
  "address": "Trimbakdas Patel Nagar, Near Devi Mandir,Paithan Dist, Paithan, Maharashtra, 431107", 
  "lat": "19.46799087524410", 
  "sublocality": "Trimbakdas Patel Nagar"
 }, 
 {
  "city": "New Delhi", 
  "name": "ICICI Bank Ltd. - New Delhi - Jorbagh", 
  "locality": "11, Jor Bagh Market", 
  "pincode": "110003", 
  "long": "77.21389770507810", 
  "landmark": "", 
  "state": "Delhi", 
  "address": "11, Jor Bagh Market, New Delhi, Delhi, 110003", 
  "lat": "28.58909988403320", 
  "sublocality": ""
 }, 
 {
  "city": "Jodhpur", 
  "name": "ICICI Bank Ltd. - Jodhpur", 
  "locality": "Plot No. 10,11, ,", 
  "pincode": "342003", 
  "long": "73.00572204589840", 
  "landmark": "Near Jaljog Circle", 
  "state": "Rajasthan", 
  "address": "Refugee Colony (Sindhi Colony), Plot No. 10,11, Near Jaljog Circle,, Jodhpur, Rajasthan, 342003", 
  "lat": "26.27286529541020", 
  "sublocality": "Refugee Colony (Sindhi Colony)"
 }, 
 {
  "city": "New Delhi", 
  "name": "ICICI Bank Ltd. - New Delhi - Janakpuri", 
  "locality": "Janak Puri,", 
  "pincode": "110058", 
  "long": "77.09069824218750", 
  "landmark": "", 
  "state": "Delhi", 
  "address": "Mahatta Towers, B - 54, Community Centre, Janak Puri,, New Delhi, Delhi, 110058", 
  "lat": "28.62999916076660", 
  "sublocality": "Mahatta Towers, B - 54, Community Centre"
 }, 
 {
  "city": "Bangalore", 
  "name": "ICICI Bank Ltd. - Bangalore - Malleshwaram", 
  "locality": "No.47, 5th Main", 
  "pincode": "560003", 
  "long": "77.56764221191410", 
  "landmark": "", 
  "state": "Karnataka", 
  "address": "5th Cross Road, Malleswaram, No.47, 5th Main, Bangalore, Karnataka, 560003", 
  "lat": "12.99917221069340", 
  "sublocality": "5th Cross Road, Malleswaram"
 }, 
 {
  "city": "New Delhi", 
  "name": "ICICI Bank Ltd. - New Delhi - New Friends Colony", 
  "locality": "43, Community Centre, New Friends colony", 
  "pincode": "110025", 
  "long": "77.26728820800780", 
  "landmark": "", 
  "state": "Delhi", 
  "address": "43, Community Centre, New Friends colony, New Delhi, Delhi, 110025", 
  "lat": "28.56250762939450", 
  "sublocality": ""
 }, 
 {
  "city": "Kolkata", 
  "name": "ICICI Bank Ltd. - Kolkata - Salt Lake - Sector 2", 
  "locality": "Salt Lake City", 
  "pincode": "700091", 
  "long": "88.42342376708980", 
  "landmark": "", 
  "state": "West Bengal", 
  "address": "Bj-140, Sector Ii, Salt Lake City, Kolkata, West Bengal, 700091", 
  "lat": "22.59131050109860", 
  "sublocality": "Bj-140, Sector Ii"
 }, 
 {
  "city": "Joyan", 
  "name": "ICICI Bank Ltd. - Joyan", 
  "locality": "Block :alot", 
  "pincode": "457114", 
  "long": "75.60434722900390", 
  "landmark": "", 
  "state": "Madhya Pradesh", 
  "address": "Village :Joyan, Block :alot, Joyan, Madhya Pradesh, 457114", 
  "lat": "23.72149848937990", 
  "sublocality": "Village :Joyan"
 }, 
 {
  "city": "The Mall", 
  "name": "ICICI Bank Ltd. - Shimla", 
  "locality": "3, Argyle House", 
  "pincode": "Himachal Pradesh", 
  "long": "77.17739868164060", 
  "landmark": "", 
  "state": "5,84", 
  "address": "3, Argyle House, The Mall, 5,84, Himachal Pradesh", 
  "lat": "31.10160064697270", 
  "sublocality": ""
 }, 
 {
  "city": "Nagpur", 
  "name": "ICICI Bank Ltd. - Nagpur - New Itwari Road", 
  "locality": "New Itwari Road, Itwari", 
  "pincode": "440002", 
  "long": "79.11477661132810", 
  "landmark": "", 
  "state": "Maharashtra", 
  "address": "Shreeji Kripa Complex, 1st Floor, New Itwari Road, Itwari, Nagpur, Maharashtra, 440002", 
  "lat": "21.15291023254390", 
  "sublocality": "Shreeji Kripa Complex, 1st Floor"
 }, 
 {
  "city": "Zira", 
  "name": "ICICI Bank Ltd. - Zira", 
  "locality": "T.C Tower", 
  "pincode": "142047", 
  "long": "74.991096496582", 
  "landmark": "", 
  "state": "Punjab", 
  "address": "Railway Road, T.C Tower, Zira, Punjab, 142047", 
  "lat": "30.96850013732910", 
  "sublocality": "Railway Road"
 }, 
 {
  "city": "Hojai", 
  "name": "ICICI Bank Ltd. - Hojai", 
  "locality": "Banshika Nivash, J K Kedia Road", 
  "pincode": "782435", 
  "long": "92.85350036621090", 
  "landmark": "", 
  "state": "Assam", 
  "address": "Banshika Nivash, J K Kedia Road, Hojai, Assam, 782435", 
  "lat": "26.00499916076660", 
  "sublocality": ""
 }, 
 {
  "city": "Khamanon", 
  "name": "ICICI Bank Ltd. - Khamanon", 
  "locality": "Adarsh Building, ", 
  "pincode": "140810", 
  "long": "76.34255218505860", 
  "landmark": "Opposite FCI Godowns", 
  "state": "Punjab", 
  "address": "Chandigarh Ludhiana National Highway, Adarsh Building, Opposite FCI Godowns, Khamanon, Punjab, 140810", 
  "lat": "30.81510925292970", 
  "sublocality": "Chandigarh Ludhiana National Highway"
 }, 
 {
  "city": "Guruharsahai", 
  "name": "ICICI Bank Ltd. - Guru Har Sahai", 
  "locality": "Street Number 10, Krishna Mandir Road", 
  "pincode": "152022", 
  "long": "74.41670227050780", 
  "landmark": "", 
  "state": "Punjab", 
  "address": "Street Number 10, Krishna Mandir Road, Guruharsahai, Punjab, 152022", 
  "lat": "30.71669960021970", 
  "sublocality": ""
 }, 
 {
  "city": "Aligarh", 
  "name": "ICICI Bank Ltd. - Aligarh - Marris Road", 
  "locality": "3/155,Sodhis Hut, Aligarh.", 
  "pincode": "202001", 
  "long": "78.08489990234380", 
  "landmark": "", 
  "state": "Uttar Pradesh", 
  "address": "Marris Road, 3/155,Sodhis Hut, Aligarh., Aligarh, Uttar Pradesh, 202001", 
  "lat": "27.89679908752440", 
  "sublocality": "Marris Road"
 }, 
 {
  "city": "Ahmedgarh", 
  "name": "ICICI Bank Ltd. - Ahmedgarh", 
  "locality": "Lotey Enterprises, Sangrur", 
  "pincode": "148021", 
  "long": "75.83159637451170", 
  "landmark": "", 
  "state": "Punjab", 
  "address": "Chhapar Road, Lotey Enterprises, Sangrur, Ahmedgarh, Punjab, 148021", 
  "lat": "30.68729972839360", 
  "sublocality": "Chhapar Road"
 }, 
 {
  "city": "Palampur", 
  "name": "ICICI Bank Ltd. - Palampur", 
  "locality": "Sudesh Niley", 
  "pincode": "176061", 
  "long": "76.53807830810550", 
  "landmark": "", 
  "state": "Himachal Pradesh", 
  "address": "Ward No 2, NH 22, Palampur, Sudesh Niley, Palampur, Himachal Pradesh, 176061", 
  "lat": "32.10942077636720", 
  "sublocality": "Ward No 2, NH 22, Palampur"
 }, 
 {
  "city": "Shimla", 
  "name": "ICICI Bank Ltd. - Shimla", 
  "locality": "The Mall", 
  "pincode": "171001", 
  "long": "77.17230224609380", 
  "landmark": "", 
  "state": "Himachal Pradesh", 
  "address": "The Mall, Shimla, Himachal Pradesh, 171001", 
  "lat": "31.10540008544920", 
  "sublocality": ""
 }, 
 {
  "city": "Ahmedabad", 
  "name": "ICICI Bank Ltd. - Ahmedabad - Bapunagar", 
  "locality": "Bapunagar", 
  "pincode": "382345", 
  "long": "72.64340209960940", 
  "landmark": "", 
  "state": "Gujarat", 
  "address": "Sardar Patel Mall, Diamond Mill Road, Thakkar Bapanagar, Bapunagar, Ahmedabad, Gujarat, 382345", 
  "lat": "23.03790092468260", 
  "sublocality": "Sardar Patel Mall, Diamond Mill Road, Thakkar Bapanagar"
 }, 
 {
  "city": "Ahmedabad", 
  "name": "ICICI Bank Ltd. - Ahmedabad - New Cloth Market", 
  "locality": "", 
  "pincode": "380001", 
  "long": "72.600700378418", 
  "landmark": "Near New Cloth Market", 
  "state": "Gujarat", 
  "address": "Ghantakaran Mahavir Market, Near New Cloth Market, Ahmedabad, Gujarat, 380001", 
  "lat": "23.01919937133790", 
  "sublocality": "Ghantakaran Mahavir Market"
 }, 
 {
  "city": "Gurgaon", 
  "name": "ICICI Bank Ltd. - Gurgaon - Sector 23", 
  "locality": "SCO 37 & 38", 
  "pincode": "122017", 
  "long": "77.04840087890630", 
  "landmark": "", 
  "state": "Haryana", 
  "address": "Huda Market , Sector 23 and 23A, SCO 37 & 38, Gurgaon, Haryana, 122017", 
  "lat": "28.51049995422360", 
  "sublocality": "Huda Market , Sector 23 and 23A"
 }, 
 {
  "city": "Ghazipur", 
  "name": "ICICI Bank Ltd. - Ghazipur", 
  "locality": "Mahuabagh", 
  "pincode": "233001", 
  "long": "83.57563018798830", 
  "landmark": "", 
  "state": "Uttar Pradesh", 
  "address": "Mahuabagh, Ghazipur, Uttar Pradesh, 233001", 
  "lat": "25.57868385314940", 
  "sublocality": ""
 }, 
 {
  "city": "Vadodara", 
  "name": "ICICI Bank Ltd. - Vadodara - Akota", 
  "locality": "Plot No 13", 
  "pincode": "390007", 
  "long": "73.17266082763670", 
  "landmark": "", 
  "state": "Gujarat", 
  "address": "Jade Square, Urmi Cross Road, Akota, Plot No 13, Vadodara, Gujarat, 390007", 
  "lat": "22.30172920227050", 
  "sublocality": "Jade Square, Urmi Cross Road, Akota"
 }, 
 {
  "city": "Surat", 
  "name": "ICICI Bank Ltd. - Surat - Piplod", 
  "locality": "", 
  "pincode": "395007", 
  "long": "72.77619934082030", 
  "landmark": "Near Lake View Garden", 
  "state": "Gujarat", 
  "address": "Kargil Chowk, Piplod, Near Lake View Garden, Surat, Gujarat, 395007", 
  "lat": "21.16099929809570", 
  "sublocality": "Kargil Chowk, Piplod"
 }, 
 {
  "city": "Modasa", 
  "name": "ICICI Bank Ltd. - Modasa", 
  "locality": "Shop No 12569, Suvidha Complex, Modasa District, Sabarkantha", 
  "pincode": "383315", 
  "long": "73.30269622802730", 
  "landmark": "", 
  "state": "Gujarat", 
  "address": "Malpur Road, Shop No 12569, Suvidha Complex, Modasa District, Sabarkantha, Modasa, Gujarat, 383315", 
  "lat": "23.46220016479490", 
  "sublocality": "Malpur Road"
 }, 
 {
  "city": "Ahmedabad", 
  "name": "ICICI Bank Ltd. - Ahmedabad - Akhbarnagar", 
  "locality": "Akhbarnagar", 
  "pincode": "382480", 
  "long": "72.56079864501950", 
  "landmark": "", 
  "state": "Gujarat", 
  "address": "Vishwa Arcade, Nava Vadaj, Akhbarnagar, Ahmedabad, Gujarat, 382480", 
  "lat": "23.06979942321780", 
  "sublocality": "Vishwa Arcade, Nava Vadaj"
 }, 
 {
  "city": "Mahasamund", 
  "name": "ICICI Bank Ltd. - Mahasamund", 
  "locality": "", 
  "pincode": "493445", 
  "long": "82.09780120849610", 
  "landmark": "Near Bishan Chandrakar Residence", 
  "state": "Chhattisgarh", 
  "address": "Station Road, Near Bishan Chandrakar Residence, Mahasamund, Chhattisgarh, 493445", 
  "lat": "21.10720062255860", 
  "sublocality": "Station Road"
 }, 
 {
  "city": "New Delhi", 
  "name": "ICICI Bank Ltd. - Delhi - Vivek Vihar", 
  "locality": "B - 130, Phase -1, Vivek Vihar", 
  "pincode": "110092", 
  "long": "77.31823730468750", 
  "landmark": "", 
  "state": "Delhi", 
  "address": "B - 130, Phase -1, Vivek Vihar, New Delhi, Delhi, 110092", 
  "lat": "28.67066383361820", 
  "sublocality": ""
 }, 
 {
  "city": "Unnao", 
  "name": "ICICI Bank Ltd. - Unnao", 
  "locality": "No 1107, Gandhi Nagar", 
  "pincode": "209801", 
  "long": "80.48690032958980", 
  "landmark": "", 
  "state": "Uttar Pradesh", 
  "address": "No 1107, Gandhi Nagar, Unnao, Uttar Pradesh, 209801", 
  "lat": "26.54610061645510", 
  "sublocality": ""
 }, 
 {
  "city": "Fazilka", 
  "name": "ICICI Bank Ltd. - Fazilka", 
  "locality": "2388 Bank Road, Dabra Street", 
  "pincode": "152123", 
  "long": "74.02549743652340", 
  "landmark": "", 
  "state": "Punjab", 
  "address": "2388 Bank Road, Dabra Street, Fazilka, Punjab, 152123", 
  "lat": "30.40369987487790", 
  "sublocality": ""
 }, 
 {
  "city": "Dhenkanal", 
  "name": "ICICI Bank Ltd. - Dhenkanal", 
  "locality": "Infront Of Dwaraka Prasad & Jagdish Prasad", 
  "pincode": "759001", 
  "long": "85.59632873535160", 
  "landmark": "", 
  "state": "Orissa", 
  "address": "Jawahar Chowk, Infront Of Dwaraka Prasad & Jagdish Prasad, Dhenkanal, Orissa, 759001", 
  "lat": "20.65759277343750", 
  "sublocality": "Jawahar Chowk"
 }, 
 {
  "city": "Rajgarh", 
  "name": "ICICI Bank Ltd. - Rajgarh", 
  "locality": "House Number 11", 
  "pincode": "465661", 
  "long": "76.73146820068360", 
  "landmark": "", 
  "state": "Madhya Pradesh", 
  "address": "Shikshak Colony, Naka Number 3, House Number 11, Rajgarh, Madhya Pradesh, 465661", 
  "lat": "24.00592613220210", 
  "sublocality": "Shikshak Colony, Naka Number 3"
 }, 
 {
  "city": "Ghaziabad", 
  "name": "ICICI Bank Ltd. - Ghaziabad - Indrapuram", 
  "locality": "Vaibhav Khand, Indrapuram", 
  "pincode": "201012", 
  "long": "77.36080169677730", 
  "landmark": "", 
  "state": "Uttar Pradesh", 
  "address": "Aditya City Centre, Vaibhav Khand, Indrapuram, Ghaziabad, Uttar Pradesh, 201012", 
  "lat": "28.638599395752", 
  "sublocality": "Aditya City Centre"
 }, 
 {
  "city": "Bongaigaon", 
  "name": "ICICI Bank Ltd. - Bongaigaon", 
  "locality": "", 
  "pincode": "783380", 
  "long": "90.56449890136720", 
  "landmark": "Near Life Pharma", 
  "state": "Assam", 
  "address": "Chapaguri Road, North Bongaigaon, Near Life Pharma, Bongaigaon, Assam, 783380", 
  "lat": "26.47419929504390", 
  "sublocality": "Chapaguri Road, North Bongaigaon"
 }, 
 {
  "city": "Peddapalli", 
  "name": "ICICI Bank Ltd. - Peddapalli", 
  "locality": "Karimnagar", 
  "pincode": "505172", 
  "long": "79.38426208496090", 
  "landmark": "", 
  "state": "Telangana", 
  "address": "1 - 2 - 85/2, Pragati Nagar, Karimnagar, Peddapalli, Telangana, 505172", 
  "lat": "18.61592292785640", 
  "sublocality": "1 - 2 - 85/2, Pragati Nagar"
 }, 
 {
  "city": "Basti", 
  "name": "ICICI Bank Ltd. - Basti", 
  "locality": "Plot No 144/2 And 144/3, Pikaura Shiv Gulam, Basti", 
  "pincode": "272001", 
  "long": "82.74708557128910", 
  "landmark": "", 
  "state": "Uttar Pradesh", 
  "address": "Malviya Road, Plot No 144/2 And 144/3, Pikaura Shiv Gulam, Basti, Basti, Uttar Pradesh, 272001", 
  "lat": "26.79966545104980", 
  "sublocality": "Malviya Road"
 }, 
 {
  "city": "Pune", 
  "name": "ICICI Bank Ltd. - Pune - Infosys - Phase - I", 
  "locality": "Hinjawadi", 
  "pincode": "411057", 
  "long": "73.73474121093750", 
  "landmark": "", 
  "state": "Maharashtra", 
  "address": "Inside Infosys Tech. Limited, Rajiv Gandhi IT Park, Phase-1, Hinjawadi, Pune, Maharashtra, 411057", 
  "lat": "18.586555480957", 
  "sublocality": "Inside Infosys Tech. Limited, Rajiv Gandhi IT Park, Phase-1"
 }, 
 {
  "city": "Bangalore", 
  "name": "ICICI Bank Ltd. - Bangalore - Margosa Road", 
  "locality": "15th Cross, Malleswaram", 
  "pincode": "560003", 
  "long": "77.56935119628910", 
  "landmark": "", 
  "state": "Karnataka", 
  "address": "No-78, Sai Sharan Heights, Off Margosa Road, 15th Cross, Malleswaram, Bangalore, Karnataka, 560003", 
  "lat": "13.00571537017820", 
  "sublocality": "No-78, Sai Sharan Heights, Off Margosa Road"
 }, 
 {
  "city": "Balasore", 
  "name": "ICICI Bank Ltd. - Balasore", 
  "locality": "520/980, F M Circle", 
  "pincode": "756001", 
  "long": "86.92353820800780", 
  "landmark": "", 
  "state": "Orissa", 
  "address": "O T Road, Bhaskarganj, 520/980, F M Circle, Balasore, Orissa, 756001", 
  "lat": "21.50038719177250", 
  "sublocality": "O T Road, Bhaskarganj"
 }, 
 {
  "city": "Gurgaon", 
  "name": "ICICI Bank Ltd. - Gurgaon - Hero Honda", 
  "locality": "Hero Honda Motors Ltd, 37 KM Stone", 
  "pincode": "122001", 
  "long": "77.01442718505860", 
  "landmark": "", 
  "state": "Haryana", 
  "address": "Delhi Jaipur Highway, Sector 33, Hero Honda Motors Ltd, 37 KM Stone, Gurgaon, Haryana, 122001", 
  "lat": "28.43765830993650", 
  "sublocality": "Delhi Jaipur Highway, Sector 33"
 }, 
 {
  "city": "Amritsar", 
  "name": "ICICI Bank Ltd. - Amritsar - Khalsa College", 
  "locality": "Khalsa College, G. T. Road", 
  "pincode": "143001", 
  "long": "74.83760070800780", 
  "landmark": "", 
  "state": "Punjab", 
  "address": "Khalsa College, G. T. Road, Amritsar, Punjab, 143001", 
  "lat": "31.63249969482420", 
  "sublocality": ""
 }, 
 {
  "city": "Mumbai", 
  "name": "ICICI Bank Ltd. - Mumbai - Andheri MIDC", 
  "locality": ", Andheri (East)", 
  "pincode": "400093", 
  "long": "72.87058258056640", 
  "landmark": "Near Floral Deck Plaza", 
  "state": "Maharashtra", 
  "address": "Ground Floor, Trans Trade Centre, Seepz, Midc, Near Floral Deck Plaza, Andheri (East), Mumbai, Maharashtra, 400093", 
  "lat": "19.12424278259280", 
  "sublocality": "Ground Floor, Trans Trade Centre, Seepz, Midc"
 }, 
 {
  "city": "Azamgarh", 
  "name": "ICICI Bank Ltd. - Azamgarh", 
  "locality": "Madaya Jairam, Azamgarh", 
  "pincode": "276001", 
  "long": "83.18119812011720", 
  "landmark": "", 
  "state": "Uttar Pradesh", 
  "address": "384-386/1 Civil Lines, Madaya Jairam, Azamgarh, Azamgarh, Uttar Pradesh, 276001", 
  "lat": "26.05319976806640", 
  "sublocality": "384-386/1 Civil Lines"
 }, 
 {
  "city": "Tepla", 
  "name": "ICICI Bank Ltd. - Tepla - Banur", 
  "locality": "Tehsil Rajpura", 
  "pincode": "140417", 
  "long": "76.737419128418", 
  "landmark": "", 
  "state": "Punjab", 
  "address": "Panchayat Bhawan, Vpo Tepla, Tehsil Rajpura, Tepla, Punjab, 140417", 
  "lat": "30.44401550292970", 
  "sublocality": "Panchayat Bhawan, Vpo Tepla"
 }, 
 {
  "city": "Guwahati", 
  "name": "ICICI Bank Ltd. - Guwahati - Downtown", 
  "locality": "G.S.Road", 
  "pincode": "781022", 
  "long": "91.80104827880860", 
  "landmark": "", 
  "state": "Assam", 
  "address": "Madhab Tower, Downtown, G.S.Road, Guwahati, Assam, 781022", 
  "lat": "26.13683509826660", 
  "sublocality": "Madhab Tower, Downtown"
 }, 
 {
  "city": "Katras", 
  "name": "ICICI Bank Ltd. - Katras", 
  "locality": "Katrasgarh, ", 
  "pincode": "828113", 
  "long": "86.30403900146480", 
  "landmark": "Opposite Choudhury Nursing Home", 
  "state": "Jharkhand", 
  "address": "Main Road, Katrasgarh, Opposite Choudhury Nursing Home, Katras, Jharkhand, 828113", 
  "lat": "23.798791885376", 
  "sublocality": "Main Road"
 }, 
 {
  "city": "Kapurthala", 
  "name": "ICICI Bank Ltd. - Kapurthala", 
  "locality": "83/206, , ", 
  "pincode": "144601", 
  "long": "75.38430023193360", 
  "landmark": "Opposite Dhian Singh Petrol PumpNear Bus Stand", 
  "state": "Punjab", 
  "address": "Jalandhar Road, 83/206, Opposite Dhian Singh Petrol Pump, Near Bus Stand, Kapurthala, Punjab, 144601", 
  "lat": "31.37739944458010", 
  "sublocality": "Jalandhar Road"
 }, 
 {
  "city": "Unjha", 
  "name": "ICICI Bank Ltd. - Unjha", 
  "locality": "1St Floor, ", 
  "pincode": "384170", 
  "long": "72.38480377197270", 
  "landmark": "Opposite Apmc Gate", 
  "state": "Gujarat", 
  "address": "Tirupati Complex, 1St Floor, Opposite Apmc Gate, Unjha, Gujarat, 384170", 
  "lat": "23.80150032043460", 
  "sublocality": "Tirupati Complex"
 }, 
 {
  "city": "Chhatarpur", 
  "name": "ICICI Bank Ltd. - Chattarpur", 
  "locality": "Potdar Bhawan, Jawahar Marg", 
  "pincode": "471001", 
  "long": "79.58222961425780", 
  "landmark": "", 
  "state": "Madhya Pradesh", 
  "address": "Potdar Bhawan, Jawahar Marg, Chhatarpur, Madhya Pradesh, 471001", 
  "lat": "24.91151428222660", 
  "sublocality": ""
 }, 
 {
  "city": "Mumbai", 
  "name": "ICICI Bank Ltd. - Mumbai - Versova", 
  "locality": ", Andheri(W)", 
  "pincode": "400061", 
  "long": "72.81472015380860", 
  "landmark": "Near Picnic Cottage", 
  "state": "Maharashtra", 
  "address": "Pranashish Building, J P Road, Versova, Near Picnic Cottage, Andheri(W), Mumbai, Maharashtra, 400061", 
  "lat": "19.12963676452640", 
  "sublocality": "Pranashish Building, J P Road, Versova"
 }, 
 {
  "city": "Hyderabad", 
  "name": "ICICI Bank Ltd. - Hyderabad - Microsoft", 
  "locality": "Gachibowli, Manikonda", 
  "pincode": "500019", 
  "long": "78.34263610839840", 
  "landmark": "", 
  "state": "Telangana", 
  "address": "Microsoft Campus, Gachibowli, Manikonda, Hyderabad, Telangana, 500019", 
  "lat": "17.430534362793", 
  "sublocality": "Microsoft Campus"
 }, 
 {
  "city": "Patna", 
  "name": "ICICI Bank Ltd. - Patna - Boring Road", 
  "locality": "Sumitra Sadan, West Boring", 
  "pincode": "800001", 
  "long": "85.12149810791020", 
  "landmark": "", 
  "state": "Bihar", 
  "address": "Canal Road, Sumitra Sadan, West Boring, Patna, Bihar, 800001", 
  "lat": "25.61759948730470", 
  "sublocality": "Canal Road"
 }, 
 {
  "city": "Bangalore", 
  "name": "ICICI Bank Ltd. - Bangalore- Avenue Road", 
  "locality": "No 11, ", 
  "pincode": "560009", 
  "long": "77.57932281494140", 
  "landmark": "Opposite Menaka Theatre", 
  "state": "Karnataka", 
  "address": "1st Cross, K G Road Extension, No 11, Opposite Menaka Theatre, Bangalore, Karnataka, 560009", 
  "lat": "12.97309589385990", 
  "sublocality": "1st Cross, K G Road Extension"
 }, 
 {
  "city": "Kolkata", 
  "name": "ICICI Bank Ltd. - Kolkata - Lake Town", 
  "locality": "Laketown", 
  "pincode": "700089", 
  "long": "88.40274810791020", 
  "landmark": "", 
  "state": "West Bengal", 
  "address": "Block A , Plot 111, Laketown, Kolkata, West Bengal, 700089", 
  "lat": "22.60826301574710", 
  "sublocality": "Block A , Plot 111"
 }, 
 {
  "city": "Korba", 
  "name": "ICICI Bank Ltd. - Korba", 
  "locality": "Gaurav Commercial Complex, Transport Nagar", 
  "pincode": "495677", 
  "long": "82.70914459228520", 
  "landmark": "", 
  "state": "Chhattisgarh", 
  "address": "Shop No 5, 6 & 7, Main Road, Gaurav Commercial Complex, Transport Nagar, Korba, Chhattisgarh, 495677", 
  "lat": "22.35959625244140", 
  "sublocality": "Shop No 5, 6 & 7, Main Road"
 }, 
 {
  "city": "Latur", 
  "name": "ICICI Bank Ltd. - Latur", 
  "locality": "Ausa Road", 
  "pincode": "413512", 
  "long": "76.55831909179690", 
  "landmark": "", 
  "state": "Maharashtra", 
  "address": "Ground Floor, Hotel Vyankatesha, Ausa Road, Latur, Maharashtra, 413512", 
  "lat": "18.38003730773930", 
  "sublocality": "Ground Floor, Hotel Vyankatesha"
 }, 
 {
  "city": "Pune", 
  "name": "ICICI Bank Ltd. - Pune - Satara Road", 
  "locality": "", 
  "pincode": "411009", 
  "long": "73.85795593261720", 
  "landmark": "Opp City Pride", 
  "state": "Maharashtra", 
  "address": "Somshankar Chambers, Survey No 46, Plot No 1, Kaka Halwai Estate, Opp City Pride, Pune, Maharashtra, 411009", 
  "lat": "18.48849868774410", 
  "sublocality": "Somshankar Chambers, Survey No 46, Plot No 1, Kaka Halwai Estate"
 }, 
 {
  "city": "Thiruvananthapuram", 
  "name": "ICICI Bank Ltd. - Thiruvananthapuram - Pazhaya Road", 
  "locality": "TC1/1491", 
  "pincode": "695011", 
  "long": "76.92965698242190", 
  "landmark": "", 
  "state": "Kerala", 
  "address": "Pazhaya road, Medical College, TC1/1491, Thiruvananthapuram, Kerala, 695011", 
  "lat": "8.52119541168213", 
  "sublocality": "Pazhaya road, Medical College"
 }, 
 {
  "city": "Kolkata", 
  "name": "ICICI Bank Ltd. - Kolkata - Behala", 
  "locality": "Diamond Towers, Behala Chowrasta", 
  "pincode": "700008", 
  "long": "88.31242370605470", 
  "landmark": "", 
  "state": "West Bengal", 
  "address": "70 B Diamond Harbour Road, Diamond Towers, Behala Chowrasta, Kolkata, West Bengal, 700008", 
  "lat": "22.48598480224610", 
  "sublocality": "70 B Diamond Harbour Road"
 }, 
 {
  "city": "Gorakhpur", 
  "name": "ICICI Bank Ltd. - Gorakhpur", 
  "locality": "Ayodhya Das Tower", 
  "pincode": "273001", 
  "long": "83.366699218750", 
  "landmark": "", 
  "state": "Uttar Pradesh", 
  "address": "Bank Road, Ayodhya Das Tower, Gorakhpur, Uttar Pradesh, 273001", 
  "lat": "26.75300025939940", 
  "sublocality": "Bank Road"
 }, 
 {
  "city": "Kalmeshwar", 
  "name": "ICICI Bank Ltd. - Brahmani - Kalmeshwar", 
  "locality": "Nagpur", 
  "pincode": "441501", 
  "long": "78.90370178222660", 
  "landmark": "", 
  "state": "Maharashtra", 
  "address": "Kalmeshwar Textile Mills, Katol Road, Brahmani Phata, Nagpur, Kalmeshwar, Maharashtra, 441501", 
  "lat": "21.23760032653810", 
  "sublocality": "Kalmeshwar Textile Mills, Katol Road, Brahmani Phata"
 }, 
 {
  "city": "Udaipur", 
  "name": "ICICI Bank Ltd. - Udaipur - Clock Tower", 
  "locality": "Clock tower", 
  "pincode": "313001", 
  "long": "73.68550109863280", 
  "landmark": "", 
  "state": "Rajasthan", 
  "address": "Clock tower, Udaipur, Rajasthan, 313001", 
  "lat": "24.58180046081540", 
  "sublocality": ""
 }, 
 {
  "city": "Udaipur", 
  "name": "ICICI Bank Ltd. - Udaipur - Ashwini Marg", 
  "locality": "39 , 40 , Ashwini Marg", 
  "pincode": "313001", 
  "long": "73.68849945068360", 
  "landmark": "", 
  "state": "Rajasthan", 
  "address": "39 , 40 , Ashwini Marg, Udaipur, Rajasthan, 313001", 
  "lat": "24.58650016784670", 
  "sublocality": ""
 }, 
 {
  "city": "Tanda Ratna", 
  "name": "ICICI Bank Ltd. - Tanda Ratna - Main Market", 
  "locality": "Tanda Ratna,Sajjan Garh,Kushalgarh Tehsil,Banswara District", 
  "pincode": "327602", 
  "long": "74.30259704589840", 
  "landmark": "", 
  "state": "Rajasthan", 
  "address": "Panchayat Samiti Main Road, Tanda Ratna,Sajjan Garh,Kushalgarh Tehsil,Banswara District, Tanda Ratna, Rajasthan, 327602", 
  "lat": "23.260799407959", 
  "sublocality": "Panchayat Samiti Main Road"
 }, 
 {
  "city": "Shergarh", 
  "name": "ICICI Bank Ltd. - Shergarh - Main Market", 
  "locality": "Tehsil-Bagidora", 
  "pincode": "327601", 
  "long": "74.16760253906250", 
  "landmark": "", 
  "state": "Rajasthan", 
  "address": "Banswara, Tehsil-Bagidora, Shergarh, Rajasthan, 327601", 
  "lat": "23.33519935607910", 
  "sublocality": "Banswara"
 }, 
 {
  "city": "Jhadol", 
  "name": "ICICI Bank Ltd. - Jhadol - Bus Stand", 
  "locality": "Tehsil Sarada", 
  "pincode": "313905", 
  "long": "73.88714599609380", 
  "landmark": "Near Bus Stand", 
  "state": "Rajasthan", 
  "address": "Hospital Choraha, Near Bus Stand, Jhadol, Tehsil Sarada, Jhadol, Rajasthan, 313905", 
  "lat": "24.22485923767090", 
  "sublocality": "Hospital Choraha, , Jhadol"
 }, 
 {
  "city": "Bedwa", 
  "name": "ICICI Bank Ltd. - Bedwa - Partapur", 
  "locality": "Dungarpur-Banswara Road", 
  "pincode": "327024", 
  "long": "74.65930175781250", 
  "landmark": "", 
  "state": "Rajasthan", 
  "address": "Bedwa-Partapur, Dungarpur-Banswara Road, Bedwa, Rajasthan, 327024", 
  "lat": "27.27260017395020", 
  "sublocality": "Bedwa-Partapur"
 }, 
 {
  "city": "Jalia", 
  "name": "ICICI Bank Ltd. - Jalia - Bijainagar", 
  "locality": "Tehsil Masuda", 
  "pincode": "305625", 
  "long": "74.56199645996090", 
  "landmark": "", 
  "state": "Rajasthan", 
  "address": "Jalia II VIA Bijainagar, Tehsil Masuda, Jalia, Rajasthan, 305625", 
  "lat": "25.92320060729980", 
  "sublocality": "Jalia II VIA Bijainagar"
 }, 
 {
  "city": "Champaneri", 
  "name": "ICICI Bank Ltd. - Champaneri - Main Market", 
  "locality": "tehsil bhinai", 
  "pincode": "305622", 
  "long": "74.84770202636720", 
  "landmark": "", 
  "state": "Rajasthan", 
  "address": "Main market champaneri, tehsil bhinai, Champaneri, Rajasthan, 305622", 
  "lat": "25.966100692749", 
  "sublocality": "Main market champaneri"
 }, 
 {
  "city": "Asika", 
  "name": "ICICI Bank Ltd. - Asika", 
  "locality": "Satya NarayanTemple Complex, Laxmi Bazar", 
  "pincode": "761110", 
  "long": "84.66429901123050", 
  "landmark": "", 
  "state": "Orissa", 
  "address": "Satya NarayanTemple Complex, Laxmi Bazar, Asika, Orissa, 761110", 
  "lat": "19.61211585998540", 
  "sublocality": ""
 }, 
 {
  "city": "Navi Mumbai", 
  "name": "ICICI Bank Ltd. - Navi Mumbai - Kamote", 
  "locality": "Sector 36, Kamothe", 
  "pincode": "410209", 
  "long": "73.09041595458980", 
  "landmark": "", 
  "state": "Maharashtra", 
  "address": "Shop No 2,3,Mayur Apartment, Sector 36, Kamothe, Navi Mumbai, Maharashtra, 410209", 
  "lat": "19.02335166931150", 
  "sublocality": "Shop No 2,3,Mayur Apartment"
 }, 
 {
  "city": "Pune", 
  "name": "ICICI Bank Ltd. - Pune - Pimpri", 
  "locality": "Station Road", 
  "pincode": "411018", 
  "long": "73.80201721191410", 
  "landmark": "", 
  "state": "Maharashtra", 
  "address": "Plot Number 206, Mahakalika Chambers, Station Road, Pune, Maharashtra, 411018", 
  "lat": "18.62271308898930", 
  "sublocality": "Plot Number 206, Mahakalika Chambers"
 }, 
 {
  "city": "Raithal", 
  "name": "ICICI Bank Ltd. - Raithal - Main Market", 
  "locality": "Village & Post-Raithal Via Kaladera", 
  "pincode": "303801", 
  "long": "75.524902343750", 
  "landmark": "", 
  "state": "Rajasthan", 
  "address": "Tehsil Amer, Jaipur District, Village & Post-Raithal Via Kaladera, Raithal, Rajasthan, 303801", 
  "lat": "27.11560058593750", 
  "sublocality": "Tehsil Amer, Jaipur District"
 }, 
 {
  "city": "Mohanpura", 
  "name": "ICICI Bank Ltd. - Mohanpura Jodhpura", 
  "locality": "C/O Ultratech Cement Ltd", 
  "pincode": "303108", 
  "long": "76.12699890136720", 
  "landmark": "", 
  "state": "Rajasthan", 
  "address": "Village Mohanpura- Jodhpura, C/O Ultratech Cement Ltd, Mohanpura, Rajasthan, 303108", 
  "lat": "27.66959953308110", 
  "sublocality": "Village Mohanpura- Jodhpura"
 }, 
 {
  "city": "Kareeri", 
  "name": "ICICI Bank Ltd. - Kareeri - Main Market", 
  "locality": "Tehsil- Shahpura,", 
  "pincode": "303803", 
  "long": "75.75869750976560", 
  "landmark": "", 
  "state": "Rajasthan", 
  "address": "Village & Post- Kareeri, Tehsil- Shahpura,, Kareeri, Rajasthan, 303803", 
  "lat": "27.38089942932130", 
  "sublocality": "Village & Post- Kareeri"
 }, 
 {
  "city": "Waluj", 
  "name": "ICICI Bank Ltd. - Waluj", 
  "locality": ", Aurangabad", 
  "pincode": "431136", 
  "long": "75.23378753662110", 
  "landmark": "Near Bajaj Nager Post Office", 
  "state": "Maharashtra", 
  "address": "Plot Number X 30, Midc, Near Bajaj Nager Post Office, Aurangabad, Waluj, Maharashtra, 431136", 
  "lat": "19.84173393249510", 
  "sublocality": "Plot Number X 30, Midc"
 }, 
 {
  "city": "Jaipur", 
  "name": "ICICI Bank Ltd. - Jaipur - Rambagh Circle", 
  "locality": "Rambagh Circle", 
  "pincode": "302005", 
  "long": "75.80740356445310", 
  "landmark": "", 
  "state": "Rajasthan", 
  "address": "Rambagh Palace Hotel Bhawani Singh Marg, Rambagh Circle, Jaipur, Rajasthan, 302005", 
  "lat": "26.89789962768550", 
  "sublocality": "Rambagh Palace Hotel Bhawani Singh Marg"
 }, 
 {
  "city": "Mumbai", 
  "name": "ICICI Bank Ltd. - Mumbai - Ghatkopar LBS Marg", 
  "locality": ", Ghatkopar (W)", 
  "pincode": "400071", 
  "long": "72.913444519043", 
  "landmark": "Opp. Shreyas Talkies", 
  "state": "Maharashtra", 
  "address": "Shop No. 2-2A And Shop No. 3, B- Wing, Kailash Esplanade, LBS Road, Opp. Shreyas Talkies, Ghatkopar (W), Mumbai, Maharashtra, 400071", 
  "lat": "19.09351730346680", 
  "sublocality": "Shop No. 2-2A And Shop No. 3, B- Wing, Kailash Esplanade, LBS Road"
 }, 
 {
  "city": "Mumbai", 
  "name": "ICICI Bank Ltd. - Mumbai - Kurla LBS Marg", 
  "locality": "Kurla", 
  "pincode": "400070", 
  "long": "72.87495422363280", 
  "landmark": "", 
  "state": "Maharashtra", 
  "address": "Shop no 5 sai kutir plot no 161, Lbs marg, Kurla, Mumbai, Maharashtra, 400070", 
  "lat": "19.06892967224120", 
  "sublocality": "Shop no 5 sai kutir plot no 161, Lbs marg"
 }, 
 {
  "city": "Bhopal", 
  "name": "ICICI Bank Ltd. - Bhopal-Lalghati", 
  "locality": "Alark Shopping Mall", 
  "pincode": "462030", 
  "long": "77.37043762207030", 
  "landmark": "Near Lalghati Square", 
  "state": "Madhya Pradesh", 
  "address": "Near Lalghati Square, Lalghati, Alark Shopping Mall, Bhopal, Madhya Pradesh, 462030", 
  "lat": "23.27436256408690", 
  "sublocality": ", Lalghati"
 }, 
 {
  "city": "Wankaner", 
  "name": "ICICI Bank Ltd. - Wankaner", 
  "locality": "J P Complex, ground floor", 
  "pincode": "363621", 
  "long": "70.94280242919920", 
  "landmark": "", 
  "state": "Gujarat", 
  "address": "Jinpara road, Wankaner, J P Complex, ground floor, Wankaner, Gujarat, 363621", 
  "lat": "22.612699508667", 
  "sublocality": "Jinpara road, Wankaner"
 }, 
 {
  "city": "Jaipur", 
  "name": "ICICI Bank Ltd. - Jaipur - Stock Exchange Building", 
  "locality": "Jaipur Stock Exchange Building", 
  "pincode": "302017", 
  "long": "75.80580139160160", 
  "landmark": "", 
  "state": "Rajasthan", 
  "address": "Malviya Nagar, Jaipur Stock Exchange Building, Jaipur, Rajasthan, 302017", 
  "lat": "26.85700035095210", 
  "sublocality": "Malviya Nagar"
 }, 
 {
  "city": "Jaipur", 
  "name": "ICICI Bank Ltd. - Jaipur - Gopalpura Circle", 
  "locality": "Gopalpura Circle", 
  "pincode": "302018", 
  "long": "75.79299926757810", 
  "landmark": "", 
  "state": "Rajasthan", 
  "address": "262 Muktanand Nagar, Gopalpura Circle, Jaipur, Rajasthan, 302018", 
  "lat": "26.86280059814450", 
  "sublocality": "262 Muktanand Nagar"
 }, 
 {
  "city": "Kannur", 
  "name": "ICICI Bank Ltd. - Kannur Talap", 
  "locality": "Kannur Talap, Down Town Complex, Talap", 
  "pincode": "670002", 
  "long": "75.37177276611330", 
  "landmark": "", 
  "state": "Kerala", 
  "address": "Kannur Talap, Down Town Complex, Talap, Kannur, Kerala, 670002", 
  "lat": "11.88628196716310", 
  "sublocality": ""
 }, 
 {
  "city": "Kochi", 
  "name": "ICICI Bank Ltd. - Kochi - Ravi Puram", 
  "locality": "", 
  "pincode": "682015", 
  "long": "76.28990173339840", 
  "landmark": "Opposite Shipyard", 
  "state": "Kerala", 
  "address": "Teepeyem Square, Ravipuram, M G Road, Opposite Shipyard, Kochi, Kerala, 682015", 
  "lat": "9.95759963989258", 
  "sublocality": "Teepeyem Square, Ravipuram, M G Road"
 }, 
 {
  "city": "Alooda", 
  "name": "ICICI Bank Ltd. - Alooda - Main Market", 
  "locality": "Alooda", 
  "pincode": "303303", 
  "long": "76.38639831542970", 
  "landmark": "", 
  "state": "Rajasthan", 
  "address": "Main Market, Alooda, Alooda, Rajasthan, 303303", 
  "lat": "26.80909919738770", 
  "sublocality": "Main Market"
 }, 
 {
  "city": "Faizabad", 
  "name": "ICICI Bank Ltd. - Faizabad", 
  "locality": "Niyawan, Faizabad", 
  "pincode": "224001", 
  "long": "82.14170074462890", 
  "landmark": "", 
  "state": "Uttar Pradesh", 
  "address": "Naharbagh, Niyawan, Faizabad, Faizabad, Uttar Pradesh, 224001", 
  "lat": "26.78520011901860", 
  "sublocality": "Naharbagh"
 }, 
 {
  "city": "Vadodara", 
  "name": "ICICI Bank Ltd. - Vadodara - Karelibaug", 
  "locality": "Amrapali Complex", 
  "pincode": "390018", 
  "long": "73.19529724121090", 
  "landmark": "", 
  "state": "Gujarat", 
  "address": "Water Tank Road, Amrapali Complex, Vadodara, Gujarat, 390018", 
  "lat": "22.24559974670410", 
  "sublocality": "Water Tank Road"
 }, 
 {
  "city": "Thane", 
  "name": "ICICI Bank Ltd. - Kalyan - Murbad Road", 
  "locality": "Guru Gobind House, , Kalyan - West", 
  "pincode": "421301", 
  "long": "73.14679718017580", 
  "landmark": "Opposite Purnima Theatre", 
  "state": "Maharashtra", 
  "address": "Murbad Road, Guru Gobind House, Opposite Purnima Theatre, Kalyan - West, Thane, Maharashtra, 421301", 
  "lat": "19.24150085449220", 
  "sublocality": "Murbad Road"
 }, 
 {
  "city": "Solapur", 
  "name": "ICICI Bank Ltd. - Solapur - Beskar Towers", 
  "locality": "Beskar Tower, Mahaveer Chowk", 
  "pincode": "413003", 
  "long": "75.91110229492190", 
  "landmark": "", 
  "state": "Maharashtra", 
  "address": "Beskar Tower, Mahaveer Chowk, Solapur, Maharashtra, 413003", 
  "lat": "17.65159988403320", 
  "sublocality": ""
 }, 
 {
  "city": "Potlan", 
  "name": "ICICI Bank Ltd. - Potlan - Main Market", 
  "locality": "Sahara Tehsil, Bhilwara District", 
  "pincode": "311810", 
  "long": "74.21050262451170", 
  "landmark": "", 
  "state": "Rajasthan", 
  "address": "Potlan Bus Stand, Sahara Tehsil, Bhilwara District, Potlan, Rajasthan, 311810", 
  "lat": "25.13909912109380", 
  "sublocality": "Potlan Bus Stand"
 }, 
 {
  "city": "Phulia Kalan", 
  "name": "ICICI Bank Ltd. - Phulia Kalan - Main Market", 
  "locality": "Phulia Kalan, Shahpura Tehsil", 
  "pincode": "311407", 
  "long": "74.96350097656250", 
  "landmark": "", 
  "state": "Rajasthan", 
  "address": "Phulia Kalan, Shahpura Tehsil, Phulia Kalan, Rajasthan, 311407", 
  "lat": "25.81679916381840", 
  "sublocality": ""
 }, 
 {
  "city": "Vijayawada", 
  "name": "ICICI Bank Ltd. - Vijayawada - Srinivasanagar Bank Colony", 
  "locality": "D No : 54 -15-13, BSR Residency,", 
  "pincode": "520008", 
  "long": "80.66947174072270", 
  "landmark": "", 
  "state": "Andhra Pradesh", 
  "address": "Srinivasanagar Bank Colony, D No : 54 -15-13, BSR Residency,, Vijayawada, Andhra Pradesh, 520008", 
  "lat": "16.51392745971680", 
  "sublocality": "Srinivasanagar Bank Colony"
 }, 
 {
  "city": "Balsamand", 
  "name": "ICICI Bank Ltd. - Balsamand - Main Road", 
  "locality": "VPO Balsamand", 
  "pincode": "125001", 
  "long": "75.48650360107420", 
  "landmark": "", 
  "state": "Haryana", 
  "address": "Main Road, VPO Balsamand, Balsamand, Haryana, 125001", 
  "lat": "29.07430076599120", 
  "sublocality": "Main Road"
 }, 
 {
  "city": "Moga", 
  "name": "ICICI Bank Ltd. - Moga - Pratap Road", 
  "locality": "Shop No. 29", 
  "pincode": "142001", 
  "long": "75.16699981689450", 
  "landmark": "", 
  "state": "Punjab", 
  "address": "Pratap Road, Shop No. 29, Moga, Punjab, 142001", 
  "lat": "30.81450080871580", 
  "sublocality": "Pratap Road"
 }, 
 {
  "city": "Mysore", 
  "name": "ICICI Bank Ltd. - Mysore - Siddarth Nagar", 
  "locality": "Siddarthnagar, ", 
  "pincode": "570011", 
  "long": "76.67816162109380", 
  "landmark": "Opposite Dfrl Building", 
  "state": "Karnataka", 
  "address": "Buddha Marg, Siddarthnagar, Opposite Dfrl Building, Mysore, Karnataka, 570011", 
  "lat": "12.30757713317870", 
  "sublocality": "Buddha Marg"
 }, 
 {
  "city": "Baddi", 
  "name": "ICICI Bank Ltd. - Baddi - Sai Road", 
  "locality": ", (distt. Solan)", 
  "pincode": "173205", 
  "long": "76.802001953125", 
  "landmark": "Opposit Krishna Complex", 
  "state": "Himachal Pradesh", 
  "address": "Sai Road, Opposit Krishna Complex, (distt. Solan), Baddi, Himachal Pradesh, 173205", 
  "lat": "30.94109916687010", 
  "sublocality": "Sai Road"
 }, 
 {
  "city": "Ujjain", 
  "name": "ICICI Bank Ltd. - Ujjain - Teliwada Chauraha", 
  "locality": "29, Teliwada Chauraha", 
  "pincode": "456010", 
  "long": "75.777099609375", 
  "landmark": "", 
  "state": "Madhya Pradesh", 
  "address": "29, Teliwada Chauraha, Ujjain, Madhya Pradesh, 456010", 
  "lat": "23.18930053710940", 
  "sublocality": ""
 }, 
 {
  "city": "New Delhi", 
  "name": "ICICI Bank Ltd. - New Delhi - Jasola Vihar", 
  "locality": "Padma Place, Nehru Place", 
  "pincode": "110019", 
  "long": "77.25328063964840", 
  "landmark": "", 
  "state": "Delhi", 
  "address": "Padma Place, Nehru Place, New Delhi, Delhi, 110019", 
  "lat": "28.54986953735350", 
  "sublocality": ""
 }, 
 {
  "city": "Hyderabad", 
  "name": "ICICI Bank Ltd. - Hyderabad - Bala Nagar", 
  "locality": "Balanagar", 
  "pincode": "500042", 
  "long": "78.45188903808590", 
  "landmark": "", 
  "state": "Telangana", 
  "address": "G-2,smr Vinay Capitol, Balanagar, Hyderabad, Telangana, 500042", 
  "lat": "17.46358108520510", 
  "sublocality": "G-2,smr Vinay Capitol"
 }, 
 {
  "city": "Sangamner", 
  "name": "ICICI Bank Ltd. - Sangamner", 
  "locality": ",Nashik-Pune highway", 
  "pincode": "422605", 
  "long": "74.20379638671880", 
  "landmark": "Near Malpani Lawns Opp.Hotel Poonam", 
  "state": "Maharashtra", 
  "address": "Ashoka Heights, Near Malpani Lawns Opp.Hotel Poonam,Nashik-Pune highway, Sangamner, Maharashtra, 422605", 
  "lat": "19.57999992370610", 
  "sublocality": "Ashoka Heights"
 }, 
 {
  "city": "Puzhakkal", 
  "name": "ICICI Bank Ltd. - Puzhakkal", 
  "locality": "P V K Complex, Amala Nagar", 
  "pincode": "680555", 
  "long": "76.16801452636720", 
  "landmark": "", 
  "state": "Kerala", 
  "address": "P V K Complex, Amala Nagar, Puzhakkal, Kerala, 680555", 
  "lat": "10.56358337402340", 
  "sublocality": ""
 }, 
 {
  "city": "Mangalore", 
  "name": "ICICI Bank Ltd. - Mangalore - Market Cross Road", 
  "locality": "Laxminarayana Complex, Behind Lady Goshen Hospital", 
  "pincode": "575001", 
  "long": "74.83889770507810", 
  "landmark": "", 
  "state": "Karnataka", 
  "address": "Market Cross Road, Laxminarayana Complex, Behind Lady Goshen Hospital, Mangalore, Karnataka, 575001", 
  "lat": "12.86550045013430", 
  "sublocality": "Market Cross Road"
 }, 
 {
  "city": "Bangalore", 
  "name": "ICICI Bank Ltd.- Bangalore - Jayanagar 8th Block", 
  "locality": "8th Block", 
  "pincode": "560082", 
  "long": "77.57806396484380", 
  "landmark": "", 
  "state": "Karnataka", 
  "address": "No. - 70, 45th Cross, 8th Block, Bangalore, Karnataka, 560082", 
  "lat": "12.91774940490720", 
  "sublocality": "No. - 70, 45th Cross"
 }, 
 {
  "city": "Chennai", 
  "name": "ICICI Bank Ltd. - Rajakilpakkam", 
  "locality": "Gandhi Nagar, Madambakkam", 
  "pincode": "600073", 
  "long": "80.14160919189450", 
  "landmark": "", 
  "state": "Tamil Nadu", 
  "address": "No  28, Rajakilpakkam Main Road, Gandhi Nagar, Madambakkam, Chennai, Tamil Nadu, 600073", 
  "lat": "12.922815322876", 
  "sublocality": "No  28, Rajakilpakkam Main Road"
 }, 
 {
  "city": "Guledgudd", 
  "name": "ICICI Bank Ltd. - Guledgudd", 
  "locality": "Main Road- Post box No.48- Taluk Badami, District Bagalkot", 
  "pincode": "587203", 
  "long": "75.788444519043", 
  "landmark": "", 
  "state": "Karnataka", 
  "address": "Guledgudd Devang Samaj Datti Building, Main Road- Post box No.48- Taluk Badami, District Bagalkot, Guledgudd, Karnataka, 587203", 
  "lat": "16.04823493957520", 
  "sublocality": "Guledgudd Devang Samaj Datti Building"
 }, 
 {
  "city": "Chennai", 
  "name": "ICICI Bank Ltd. - Chennai - Nelson Manickam Road", 
  "locality": "Nelson Manickam Road", 
  "pincode": "600029", 
  "long": "80.22750854492190", 
  "landmark": "", 
  "state": "Tamil Nadu", 
  "address": "39, Nelson Manickam Road, Nelson Manickam Road, Chennai, Tamil Nadu, 600029", 
  "lat": "13.06737232208250", 
  "sublocality": "39, Nelson Manickam Road"
 }, 
 {
  "city": "81,3,161,181", 
  "name": "ICICI Bank Ltd. - Gheradi", 
  "locality": "Gherdi", 
  "pincode": "413309", 
  "long": "75.28140258789060", 
  "landmark": "", 
  "state": "Solapur", 
  "address": "CTS No. 287/1 & 289, H.No.121 & 123, Sangola, Gherdi, 81,3,161,181, Solapur, 413309", 
  "lat": "17.27980041503910", 
  "sublocality": "H.No.121 & 123, Sangola"
 }, 
 {
  "city": "Morba", 
  "name": "ICICI Bank Ltd. - Morba", 
  "locality": "Morba, Mangaon, Raigad", 
  "pincode": "402117", 
  "long": "73.24763488769530", 
  "landmark": "", 
  "state": "Maharashtra", 
  "address": "A A Bade Building , A/P Post, Morba, Mangaon, Raigad, Morba, Maharashtra, 402117", 
  "lat": "18.209602355957", 
  "sublocality": "A A Bade Building , A/P Post"
 }, 
 {
  "city": "Noida", 
  "name": "ICICI Bank Ltd. - Noida - Sector 50", 
  "locality": "Sector 50", 
  "pincode": "201301", 
  "long": "77.37120056152340", 
  "landmark": "", 
  "state": "Uttar Pradesh", 
  "address": "Block B1, Sector 50, Noida, Uttar Pradesh, 201301", 
  "lat": "28.57340049743650", 
  "sublocality": "Block B1"
 }, 
 {
  "city": "Yamunanagar", 
  "name": "ICICI Bank Ltd. - Yamunanagar - Model Town", 
  "locality": "Model Town, ", 
  "pincode": "135001", 
  "long": "77.28982543945310", 
  "landmark": "Near J K Residency Hlote", 
  "state": "Haryana", 
  "address": "269/v Gobind Puri Road, Model Town, Near J K Residency Hlote, Yamunanagar, Haryana, 135001", 
  "lat": "30.13971138000490", 
  "sublocality": "269/v Gobind Puri Road"
 }, 
 {
  "city": "Hyderabad", 
  "name": "ICICI Bank Ltd. - Hyderabad - Dilsukhnagar", 
  "locality": "Chaitanyapuri, Dilsukhnagar", 
  "pincode": "500060", 
  "long": "78.53378295898440", 
  "landmark": "", 
  "state": "Telangana", 
  "address": "2-42/1 to 8,G.B.R Towers, Chaitanyapuri, Dilsukhnagar, Hyderabad, Telangana, 500060", 
  "lat": "17.37434387207030", 
  "sublocality": "2-42/1 to 8,G.B.R Towers"
 }, 
 {
  "city": "Haldwani", 
  "name": "ICICI Bank Ltd. - Haldwani - Kaldungi Road", 
  "locality": ",", 
  "pincode": "263139", 
  "long": "79.51344299316410", 
  "landmark": "Near Primary School Opp. ENT hospital", 
  "state": "Uttarakhand", 
  "address": "Bithoria No 1, Bisht Ohara, Near Primary School ,Opp. ENT hospital, Haldwani, Uttarakhand, 263139", 
  "lat": "29.21955871582030", 
  "sublocality": "Bithoria No 1, Bisht Ohara"
 }, 
 {
  "city": "Rudrapur", 
  "name": "ICICI Bank Ltd. - Rudrapur - U S Nagar", 
  "locality": "D1-D2,12, , US Nagar", 
  "pincode": "263153", 
  "long": "79.39556121826170", 
  "landmark": "Near Hotel Mid Town", 
  "state": "Uttarakhand", 
  "address": "Kashipur By Pass Road, D1-D2,12, Near Hotel Mid Town, US Nagar, Rudrapur, Uttarakhand, 263153", 
  "lat": "28.97852516174320", 
  "sublocality": "Kashipur By Pass Road"
 }, 
 {
  "city": "Kodikullam", 
  "name": "ICICI Bank Ltd. - Kodikulam", 
  "locality": "Sub District Ussilampatti", 
  "pincode": "625514", 
  "long": "77.90753936767580", 
  "landmark": "", 
  "state": "Tamil Nadu", 
  "address": "Village Kodikullam, Sub District Ussilampatti, Kodikullam, Tamil Nadu, 625514", 
  "lat": "9.97312736511230", 
  "sublocality": "Village Kodikullam"
 }, 
 {
  "city": "Villupuram", 
  "name": "ICICI Bank Ltd. - Sithalingamadam", 
  "locality": "P.O. - Tirukoilur Taluka", 
  "pincode": "605803", 
  "long": "79.28072357177730", 
  "landmark": "", 
  "state": "Tamil Nadu", 
  "address": "2/49, Sivavakkiar Street, Sithilingamadam, P.O. - Tirukoilur Taluka, Villupuram, Tamil Nadu, 605803", 
  "lat": "11.930947303772", 
  "sublocality": "2/49, Sivavakkiar Street, Sithilingamadam"
 }, 
 {
  "city": "Jasdan", 
  "name": "ICICI Bank Ltd. - Gadhadiya", 
  "locality": "Tal Jasdan", 
  "pincode": "360050", 
  "long": "71.57862091064450", 
  "landmark": "", 
  "state": "Gujarat", 
  "address": "At Gadhadiya, Tal Jasdan, Jasdan, Gujarat, 360050", 
  "lat": "21.96723747253420", 
  "sublocality": "At Gadhadiya"
 }, 
 {
  "city": "Zira", 
  "name": "ICICI Bank Ltd. - Talwandi Jallekhan", 
  "locality": "Tehsil  Zira", 
  "pincode": "152028", 
  "long": "75.05794525146480", 
  "landmark": "", 
  "state": "Punjab", 
  "address": "Village Talwandi Jallekhan, Tehsil  Zira, Zira, Punjab, 152028", 
  "lat": "30.94677543640140", 
  "sublocality": "Village Talwandi Jallekhan"
 }, 
 {
  "city": "Fatehabad", 
  "name": "ICICI Bank Ltd. - Noorkiahli", 
  "locality": "Tehsil - Fatehabad", 
  "pincode": "125050", 
  "long": "83.91204071044920", 
  "landmark": "", 
  "state": "Haryana", 
  "address": "Village Noorkiahli, Tehsil - Fatehabad, Fatehabad, Haryana, 125050", 
  "lat": "26.75621414184570", 
  "sublocality": "Village Noorkiahli"
 }, 
 {
  "city": "Bangaon", 
  "name": "ICICI Bank Ltd. - Bangaon", 
  "locality": "Bichalihata- 24 Parganas (North)", 
  "pincode": "743235", 
  "long": "88.83474731445310", 
  "landmark": "", 
  "state": "West Bengal", 
  "address": "Court Road, Bichalihata- 24 Parganas (North), Bangaon, West Bengal, 743235", 
  "lat": "23.04351997375490", 
  "sublocality": "Court Road"
 }, 
 {
  "city": "Mumbai", 
  "name": "ICICI Bank Ltd. - Mumbai - Jogeshwari West", 
  "locality": ", Jogeshwari West", 
  "pincode": "400102", 
  "long": "72.84268951416020", 
  "landmark": "Opp Hpcl Petrol Pump", 
  "state": "Maharashtra", 
  "address": "Shop No 3,4 & 5, Ayesha Tower, SV Road,, Opp Hpcl Petrol Pump, Jogeshwari West, Mumbai, Maharashtra, 400102", 
  "lat": "19.14209556579590", 
  "sublocality": "Shop No 3,4 & 5, Ayesha Tower, SV Road,"
 }, 
 {
  "city": "Pusad", 
  "name": "ICICI Bank Ltd. - Pusad", 
  "locality": "Behind Bus Stand", 
  "pincode": "445204", 
  "long": "77.56780242919920", 
  "landmark": "", 
  "state": "Maharashtra", 
  "address": "Biyani Brothers, Main Road, Behind Bus Stand, Pusad, Maharashtra, 445204", 
  "lat": "19.90870094299320", 
  "sublocality": "Biyani Brothers, Main Road"
 }, 
 {
  "city": "Karwar", 
  "name": "ICICI Bank Ltd. - Karwar", 
  "locality": "Shop No 4, 9, Ground Floor, Baad Taluk", 
  "pincode": "581301", 
  "long": "74.13106536865230", 
  "landmark": "", 
  "state": "Karnataka", 
  "address": "Sri Chakra Arcade, Shop No 4, 9, Ground Floor, Baad Taluk, Karwar, Karnataka, 581301", 
  "lat": "14.81327724456790", 
  "sublocality": "Sri Chakra Arcade"
 }, 
 {
  "city": "Alibag", 
  "name": "ICICI Bank Ltd. - Alibag", 
  "locality": "", 
  "pincode": "402201", 
  "long": "72.867919921875", 
  "landmark": "Near St Stand", 
  "state": "Maharashtra", 
  "address": "Shreemaulikripa Complex, Shreebag, Khetra Vikas Yojana, Rewas Road, Near St Stand, Alibag, Maharashtra, 402201", 
  "lat": "18.65549087524410", 
  "sublocality": "Shreemaulikripa Complex, Shreebag, Khetra Vikas Yojana, Rewas Road"
 }, 
 {
  "city": "Sojat", 
  "name": "ICICI Bank Ltd. - Sojat City - Pali Road", 
  "locality": "Ganpat Bhawan (Suraj Kutir), Outside Chandpole Gate, District.-Pali", 
  "pincode": "306104", 
  "long": "73.66822814941410", 
  "landmark": "", 
  "state": "Rajasthan", 
  "address": "Sojat City, Ganpat Bhawan (Suraj Kutir), Outside Chandpole Gate, District.-Pali, Sojat, Rajasthan, 306104", 
  "lat": "25.922679901123", 
  "sublocality": "Sojat City"
 }, 
 {
  "city": "Sikar", 
  "name": "ICICI Bank Ltd. - Sikar", 
  "locality": "Jogani Plaza, ", 
  "pincode": "332001", 
  "long": "75.14575958251950", 
  "landmark": "Near Kalyan Circle", 
  "state": "Rajasthan", 
  "address": "Station Road, Jogani Plaza, Near Kalyan Circle, Sikar, Rajasthan, 332001", 
  "lat": "27.61253738403320", 
  "sublocality": "Station Road"
 }, 
 {
  "city": "Chandigarh", 
  "name": "ICICI Bank Ltd. - Chandigarh - Sector 9D", 
  "locality": "SCO 9-10-11", 
  "pincode": "160017", 
  "long": "76.78730010986330", 
  "landmark": "", 
  "state": "Chandigarh", 
  "address": "Sector 9-D, SCO 9-10-11, Chandigarh, Chandigarh, 160017", 
  "lat": "30.74539947509770", 
  "sublocality": "Sector 9-D"
 }, 
 {
  "city": "Chennai", 
  "name": "ICICI Bank Ltd. - Chennai - Gopalapuram - Wealth Branch", 
  "locality": "Gopalapuram", 
  "pincode": "600086", 
  "long": "80.25763702392580", 
  "landmark": "", 
  "state": "Tamil Nadu", 
  "address": "Conran smith road, Gopalapuram, Chennai, Tamil Nadu, 600086", 
  "lat": "13.05170154571530", 
  "sublocality": "Conran smith road"
 }, 
 {
  "city": "Chennai", 
  "name": "ICICI Bank Ltd. - Chennai - Mylapore Oliver Road - Wealth Branch", 
  "locality": "Mylapore", 
  "pincode": "600004", 
  "long": "80.26083374023440", 
  "landmark": "", 
  "state": "Tamil Nadu", 
  "address": "No 39/20, Oliver Road, Mylapore, Chennai, Tamil Nadu, 600004", 
  "lat": "13.03912162780760", 
  "sublocality": "No 39/20, Oliver Road"
 }, 
 {
  "city": "Kolkata", 
  "name": "ICICI Bank Ltd. - Kolkata - Salt Lake - Wealth Branch", 
  "locality": "Dc-23, Salt Lake Sector 1,", 
  "pincode": "700064", 
  "long": "88.40402984619140", 
  "landmark": "", 
  "state": "West Bengal", 
  "address": "Bidhan Nagar, Dc-23, Salt Lake Sector 1,, Kolkata, West Bengal, 700064", 
  "lat": "22.591121673584", 
  "sublocality": "Bidhan Nagar"
 }, 
 {
  "city": "Jamshedpur", 
  "name": "ICICI Bank Ltd. - Jamshedpur - Bistupur - Wealth Branch", 
  "locality": ", Bistupur", 
  "pincode": "831001", 
  "long": "86.17913818359380", 
  "landmark": "Near Tulsi Bhavan", 
  "state": "Jharkhand", 
  "address": "Awas Crystal Contractors Area, Near Tulsi Bhavan, Bistupur, Jamshedpur, Jharkhand, 831001", 
  "lat": "22.79305839538570", 
  "sublocality": "Awas Crystal Contractors Area"
 }, 
 {
  "city": "Lohardaga", 
  "name": "ICICI Bank Ltd. - Lohardaga", 
  "locality": "", 
  "pincode": "835302", 
  "long": "84.68077087402340", 
  "landmark": "Near Town Thana", 
  "state": "Jharkhand", 
  "address": "Main Road, Near Town Thana, Lohardaga, Jharkhand, 835302", 
  "lat": "23.43494033813480", 
  "sublocality": "Main Road"
 }, 
 {
  "city": "Auroville", 
  "name": "ICICI Bank Ltd. - Auroville", 
  "locality": "Lakshmipuram, Villupuram District", 
  "pincode": "605101", 
  "long": "79.81060028076170", 
  "landmark": "", 
  "state": "Tamil Nadu", 
  "address": "No 44 Bommipalayam Road, Kuilapalayam, Lakshmipuram, Villupuram District, Auroville, Tamil Nadu, 605101", 
  "lat": "12.00689983367920", 
  "sublocality": "No 44 Bommipalayam Road, Kuilapalayam"
 }, 
 {
  "city": "Narnaul", 
  "name": "ICICI Bank Ltd. - Narnaul", 
  "locality": "", 
  "pincode": "123001", 
  "long": "76.11000061035160", 
  "landmark": "Opposite D.C.Residence", 
  "state": "Haryana", 
  "address": "Ward No.1, Mahendargarh Road, Opposite D.C.Residence, Narnaul, Haryana, 123001", 
  "lat": "28.04000091552730", 
  "sublocality": "Ward No.1, Mahendargarh Road"
 }, 
 {
  "city": "Trichy", 
  "name": "ICICI Bank Ltd. - Trichy - KK Nagar", 
  "locality": "Pl.M Building Plot No 371, Door No 9, Rajaram Salai (", 
  "pincode": "620021", 
  "long": "78.69659423828130", 
  "landmark": "Opp) KK Nagar Bus Terminals", 
  "state": "Tamil Nadu", 
  "address": "KK Nagar, Pl.M Building Plot No 371, Door No 9, Rajaram Salai (Opp) KK Nagar Bus Terminals, Trichy, Tamil Nadu, 620021", 
  "lat": "10.75609111785890", 
  "sublocality": "KK Nagar"
 }, 
 {
  "city": "Erode", 
  "name": "ICICI Bank Ltd. - Erode - Paari Nagar", 
  "locality": "5/1, Neela Complex, Paarinagar Corner", 
  "pincode": "638011", 
  "long": "77.71289825439450", 
  "landmark": "", 
  "state": "Tamil Nadu", 
  "address": "Perundurai Road, 5/1, Neela Complex, Paarinagar Corner, Erode, Tamil Nadu, 638011", 
  "lat": "11.33779621124270", 
  "sublocality": "Perundurai Road"
 }, 
 {
  "city": "Chennai", 
  "name": "ICICI Bank Ltd. - Chennai - DLF IT Park", 
  "locality": "Mount Poonamallee high road, Nandambakkam", 
  "pincode": "600089", 
  "long": "80.17659759521480", 
  "landmark": "", 
  "state": "Tamil Nadu", 
  "address": "DLF IT SEZ Park, Mount Poonamallee high road, Nandambakkam, Chennai, Tamil Nadu, 600089", 
  "lat": "13.02318763732910", 
  "sublocality": "DLF IT SEZ Park"
 }, 
 {
  "city": "Nirmal", 
  "name": "ICICI Bank Ltd. - Nirmal", 
  "locality": "Door Number 1-2-275, ", 
  "pincode": "504106", 
  "long": "78.34297180175780", 
  "landmark": "Opposite RTC Bus Depot", 
  "state": "Telangana", 
  "address": "Podduturi Complex, Door Number 1-2-275, Opposite RTC Bus Depot, Nirmal, Telangana, 504106", 
  "lat": "19.09641265869140", 
  "sublocality": "Podduturi Complex"
 }, 
 {
  "city": "Ramgarh", 
  "name": "ICICI Bank Ltd. - Ramgarh", 
  "locality": "Thana Chowk, , Spice Garden", 
  "pincode": "829122", 
  "long": "85.521110534668", 
  "landmark": "Near Jain Petrol Supply Co.", 
  "state": "Jharkhand", 
  "address": "Main Road Ramgarh, Thana Chowk, Near Jain Petrol Supply Co., Spice Garden, Ramgarh, Jharkhand, 829122", 
  "lat": "23.62833213806150", 
  "sublocality": "Main Road Ramgarh"
 }, 
 {
  "city": "Hyderabad", 
  "name": "ICICI Bank Ltd. - Hyderabad - Nallakunta", 
  "locality": ", Nallakunta", 
  "pincode": "500044", 
  "long": "78.50786590576170", 
  "landmark": "Opp.dd hospital", 
  "state": "Telangana", 
  "address": "Shobha pavani arcade, Opp.dd hospital, Nallakunta, Hyderabad, Telangana, 500044", 
  "lat": "17.39868545532230", 
  "sublocality": "Shobha pavani arcade"
 }, 
 {
  "city": "Coonoor", 
  "name": "ICICI Bank Ltd. - Coimbatore - Coonoor", 
  "locality": "Bedford", 
  "pincode": "643101", 
  "long": "76.79366302490230", 
  "landmark": "", 
  "state": "Tamil Nadu", 
  "address": "No 89/1A9 Gandhigiri,Grays Hill, Bedford, Coonoor, Tamil Nadu, 643101", 
  "lat": "11.34836006164550", 
  "sublocality": "No 89/1A9 Gandhigiri,Grays Hill"
 }, 
 {
  "city": "Gurgaon", 
  "name": "ICICI Bank Ltd. - Gurgaon - DLF Phase III", 
  "locality": "DLF Phase III", 
  "pincode": "122001", 
  "long": "77.10000610351560", 
  "landmark": "", 
  "state": "Haryana", 
  "address": "Unit No. 1, Solitaire Plaza, MG Road, DLF Phase III, Gurgaon, Haryana, 122001", 
  "lat": "28.48109245300290", 
  "sublocality": "Unit No. 1, Solitaire Plaza, MG Road"
 }, 
 {
  "city": "Bangalore", 
  "name": "ICICI Bank Ltd. - Bangalore - Old Airport Road", 
  "locality": "Murugesh Palya, Old Airport Road", 
  "pincode": "560017", 
  "long": "77.65495300292970", 
  "landmark": "", 
  "state": "Karnataka", 
  "address": "Phoenix Idiom, No35, 1St Cross, Murugesh Palya, Old Airport Road, Bangalore, Karnataka, 560017", 
  "lat": "12.95913887023930", 
  "sublocality": "Phoenix Idiom, No35, 1St Cross"
 }, 
 {
  "city": "Allahabad", 
  "name": "ICICI Bank Ltd. - Allahabad - Transport Nagar", 
  "locality": "528, Transport Nagar", 
  "pincode": "211011", 
  "long": "81.76619720458980", 
  "landmark": "", 
  "state": "Uttar Pradesh", 
  "address": "528, Transport Nagar, Allahabad, Uttar Pradesh, 211011", 
  "lat": "25.44994735717770", 
  "sublocality": ""
 }, 
 {
  "city": "New Delhi", 
  "name": "ICICI Bank Ltd. - New Delhi - Ashok Vihar", 
  "locality": "B - 2/16, Ashok Vihar 2", 
  "pincode": "110052", 
  "long": "77.17583465576170", 
  "landmark": "", 
  "state": "Delhi", 
  "address": "B - 2/16, Ashok Vihar 2, New Delhi, Delhi, 110052", 
  "lat": "28.69535446166990", 
  "sublocality": ""
 }, 
 {
  "city": "Pandiyur", 
  "name": "ICICI Bank Ltd. - Pandiyur", 
  "locality": "Sub District Paramakudi", 
  "pincode": "623705", 
  "long": "78.72831726074220", 
  "landmark": "", 
  "state": "Tamil Nadu", 
  "address": "Village Pandiyur, Sub District Paramakudi, Pandiyur, Tamil Nadu, 623705", 
  "lat": "9.47946453094482", 
  "sublocality": "Village Pandiyur"
 }, 
 {
  "city": "GUDLI", 
  "name": "ICICI Bank Ltd. - Gudli", 
  "locality": "Tehsil Mavli", 
  "pincode": "313003", 
  "long": "73.82256317138670", 
  "landmark": "", 
  "state": "Rajasthan", 
  "address": "Gudli, Tehsil Mavli, GUDLI, Rajasthan, 313003", 
  "lat": "24.63078498840330", 
  "sublocality": "Gudli"
 }, 
 {
  "city": "Basri Khurd", 
  "name": "ICICI Bank Ltd. - Basdi Khurd", 
  "locality": "Tehsil Neem Ka Thana", 
  "pincode": "332708", 
  "long": "75.40859222412110", 
  "landmark": "", 
  "state": "Rajasthan", 
  "address": "Basri Khurd, Tehsil Neem Ka Thana, Basri Khurd, Rajasthan, 332708", 
  "lat": "27.172140121460", 
  "sublocality": "Basri Khurd"
 }, 
 {
  "city": "Bhawad", 
  "name": "ICICI Bank Ltd. - Bhawad", 
  "locality": "Tehsil Baori", 
  "pincode": "342037", 
  "long": "73.09577178955080", 
  "landmark": "", 
  "state": "Rajasthan", 
  "address": "Bhawad, Tehsil Baori, Bhawad, Rajasthan, 342037", 
  "lat": "26.51751708984380", 
  "sublocality": "Bhawad"
 }, 
 {
  "city": "Sriganganagar", 
  "name": "ICICI Bank Ltd. - 9 ML", 
  "locality": "Tehsil Sri Ganga Nagar", 
  "pincode": "335025", 
  "long": "73.84772491455080", 
  "landmark": "", 
  "state": "Rajasthan", 
  "address": "9 - Ml, Tehsil Sri Ganga Nagar, Sriganganagar, Rajasthan, 335025", 
  "lat": "29.77663612365720", 
  "sublocality": "9 - Ml"
 }, 
 {
  "city": "Kanasar", 
  "name": "ICICI Bank Ltd. - Kanasar", 
  "locality": "Tehsil Shiv", 
  "pincode": "344701", 
  "long": "71.58803558349610", 
  "landmark": "", 
  "state": "Rajasthan", 
  "address": "Kanasar, Tehsil Shiv, Kanasar, Rajasthan, 344701", 
  "lat": "26.32799148559570", 
  "sublocality": "Kanasar"
 }, 
 {
  "city": "Mojowal", 
  "name": "ICICI Bank Ltd. - Mojowal", 
  "locality": "Sub District Sunam", 
  "pincode": "148028", 
  "long": "75.77836608886720", 
  "landmark": "", 
  "state": "Punjab", 
  "address": "Village Mojowal, Sub District Sunam, Mojowal, Punjab, 148028", 
  "lat": "30.02292633056640", 
  "sublocality": "Village Mojowal"
 }, 
 {
  "city": "Nilowal", 
  "name": "ICICI Bank Ltd. - Nilowal", 
  "locality": "Sub District Sunam", 
  "pincode": "148028", 
  "long": "75.80651855468750", 
  "landmark": "", 
  "state": "Punjab", 
  "address": "Village Nilowal, Sub District Sunam, Nilowal, Punjab, 148028", 
  "lat": "30.07569313049320", 
  "sublocality": "Village Nilowal"
 }, 
 {
  "city": "Heran", 
  "name": "ICICI Bank Ltd. - Heran", 
  "locality": "Sub District Raikot", 
  "pincode": "141107", 
  "long": "75.58271026611330", 
  "landmark": "", 
  "state": "Punjab", 
  "address": "Village Heran, Sub District Raikot, Heran, Punjab, 141107", 
  "lat": "30.74228477478030", 
  "sublocality": "Village Heran"
 }, 
 {
  "city": "Mohadi", 
  "name": "ICICI Bank Ltd. - Mohadi BK", 
  "locality": "Sub District Jamner", 
  "pincode": "425114", 
  "long": "75.532600402832", 
  "landmark": "", 
  "state": "Maharashtra", 
  "address": "Village Mohadi, Sub District Jamner, Mohadi, Maharashtra, 425114", 
  "lat": "20.96386337280270", 
  "sublocality": "Village Mohadi"
 }, 
 {
  "city": "KHEJRA (Guna)", 
  "name": "ICICI Bank Ltd. - Khejra", 
  "locality": "Sub District Guna", 
  "pincode": "473001", 
  "long": "77.37158966064450", 
  "landmark": "", 
  "state": "Madhya Pradesh", 
  "address": "Village Khejra Guna, Sub District Guna, KHEJRA (Guna), Madhya Pradesh, 473001", 
  "lat": "24.61623001098630", 
  "sublocality": "Village Khejra Guna"
 }, 
 {
  "city": "Thamarakhandi", 
  "name": "ICICI Bank Ltd. - Thamarakhandi", 
  "locality": "Sub District Seethanagaram", 
  "pincode": "535546", 
  "long": "83.34809112548830", 
  "landmark": "", 
  "state": "Andhra Pradesh", 
  "address": "Village Thamarakhandi, Sub District Seethanagaram, Thamarakhandi, Andhra Pradesh, 535546", 
  "lat": "18.67191505432130", 
  "sublocality": "Village Thamarakhandi"
 }, 
 {
  "city": "Visweswarayapuram", 
  "name": "ICICI Bank Ltd. - Visweswarayapuram", 
  "locality": "Sub District Malikipuram", 
  "pincode": "533253", 
  "long": "81.82675170898440", 
  "landmark": "", 
  "state": "Andhra Pradesh", 
  "address": "Village Visweswarayapuram, Sub District Malikipuram, Visweswarayapuram, Andhra Pradesh, 533253", 
  "lat": "16.424337387085", 
  "sublocality": "Village Visweswarayapuram"
 }, 
 {
  "city": "Bommaiahgari Palle", 
  "name": "ICICI Bank Ltd. - Bhommaiahgari Palle", 
  "locality": "Sub District Rompicherla", 
  "pincode": "517192", 
  "long": "79.049934387207", 
  "landmark": "", 
  "state": "Andhra Pradesh", 
  "address": "Village Bommaiahgari Palle, Sub District Rompicherla, Bommaiahgari Palle, Andhra Pradesh, 517192", 
  "lat": "13.634819984436", 
  "sublocality": "Village Bommaiahgari Palle"
 }, 
 {
  "city": "Kopra", 
  "name": "ICICI Bank Ltd. - Kopra", 
  "locality": "Tehsil Rajim Kopra", 
  "pincode": "493887", 
  "long": "81.92456817626950", 
  "landmark": "", 
  "state": "Chhattisgarh", 
  "address": "In Front Of High School, Gariaband Road, Tehsil Rajim Kopra, Kopra, Chhattisgarh, 493887", 
  "lat": "20.83576011657710", 
  "sublocality": "In Front Of High School, Gariaband Road"
 }, 
 {
  "city": "Therpogi", 
  "name": "ICICI Bank Ltd. - Therpogi", 
  "locality": "Sub District Mandapam", 
  "pincode": "623801", 
  "long": "78.92657470703130", 
  "landmark": "", 
  "state": "Tamil Nadu", 
  "address": "Village Therpogi, Sub District Mandapam, Therpogi, Tamil Nadu, 623801", 
  "lat": "9.39074707031250", 
  "sublocality": "Village Therpogi"
 }, 
 {
  "city": "Hanumangarh", 
  "name": "ICICI Bank Ltd. - 5KNJ Makkasar", 
  "locality": "Block Hanumangarh", 
  "pincode": "335512", 
  "long": "74.25233459472660", 
  "landmark": "", 
  "state": "Rajasthan", 
  "address": "Village 5 Knj, Makkasar, Block Hanumangarh, Hanumangarh, Rajasthan, 335512", 
  "lat": "29.60014915466310", 
  "sublocality": "Village 5 Knj, Makkasar"
 }, 
 {
  "city": "Verna", 
  "name": "ICICI Bank Ltd. - Verna", 
  "locality": "Verna, Salcette", 
  "pincode": "403722", 
  "long": "73.92588806152340", 
  "landmark": "Opp. Verna Industrial Estate", 
  "state": "Goa", 
  "address": "Plot No. 157/1, Hotel Mardol, Nh 17, Opp. Verna Industrial Estate, Verna, Salcette, Verna, Goa, 403722", 
  "lat": "15.37393283843990", 
  "sublocality": "Plot No. 157/1, Hotel Mardol, Nh 17, "
 }, 
 {
  "city": "Surat", 
  "name": "ICICI Bank Ltd. - Surat - Bhagal", 
  "locality": "Haripura Bagal, Lal Gate", 
  "pincode": "395003", 
  "long": "72.83807373046880", 
  "landmark": "", 
  "state": "Gujarat", 
  "address": "Shubham Point, Ruwala Tekra, Haripura Bagal, Lal Gate, Surat, Gujarat, 395003", 
  "lat": "21.20637512207030", 
  "sublocality": "Shubham Point, Ruwala Tekra"
 }, 
 {
  "city": "Kolkata", 
  "name": "ICICI Bank Ltd. - Kolkata - Salt Lake - Sector 1", 
  "locality": "Salt Lake City", 
  "pincode": "700064", 
  "long": "88.40290069580080", 
  "landmark": "", 
  "state": "West Bengal", 
  "address": "AD - 59, Sector - 1, Salt Lake City, Kolkata, West Bengal, 700064", 
  "lat": "22.593599319458", 
  "sublocality": "AD - 59, Sector - 1"
 }, 
 {
  "city": "Hyderabad", 
  "name": "ICICI Bank Ltd. - Vanasthalipuram", 
  "locality": "Main Road, Vanasthalipuram", 
  "pincode": "500070", 
  "long": "78.57460021972660", 
  "landmark": "", 
  "state": "Telangana", 
  "address": "Plot no 21 & 22, Ground floor, Main Road, Vanasthalipuram, Hyderabad, Telangana, 500070", 
  "lat": "17.32537460327150", 
  "sublocality": "Plot no 21 & 22, Ground floor"
 }, 
 {
  "city": "Sonepat", 
  "name": "ICICI Bank Ltd. - Sonepat", 
  "locality": "210-R,Model Town", 
  "pincode": "131001", 
  "long": "77.02089691162110", 
  "landmark": "", 
  "state": "Haryana", 
  "address": "Atlas Road, 210-R,Model Town, Sonepat, Haryana, 131001", 
  "lat": "28.98679924011230", 
  "sublocality": "Atlas Road"
 }, 
 {
  "city": "Bangalore", 
  "name": "ICICI Bank Ltd. - Bangalore - HRBR Layout", 
  "locality": "No 4M -417, Kammanhalli, Hrbr 3rd Block, Kalyana Nagar", 
  "pincode": "560043", 
  "long": "77.63700103759770", 
  "landmark": "", 
  "state": "Karnataka", 
  "address": "80 feet Road, No 4M -417, Kammanhalli, Hrbr 3rd Block, Kalyana Nagar, Bangalore, Karnataka, 560043", 
  "lat": "13.02480030059810", 
  "sublocality": "80 feet Road"
 }, 
 {
  "city": "Bangalore", 
  "name": "ICICI Bank Ltd. - Bangalore - BTM 2nd Stage", 
  "locality": "No 802, Essar plaza, BTM 2nd Stage", 
  "pincode": "560076", 
  "long": "77.60980224609380", 
  "landmark": "", 
  "state": "Karnataka", 
  "address": "7th Cross, No 802, Essar plaza, BTM 2nd Stage, Bangalore, Karnataka, 560076", 
  "lat": "12.91389560699460", 
  "sublocality": "7th Cross"
 }, 
 {
  "city": "Jaipur", 
  "name": "ICICI Bank Ltd. - Jaipur - C Scheme - Wealth Branch", 
  "locality": "Paradise Regency, C-69 ,C- Scheme", 
  "pincode": "302001", 
  "long": "75.80619812011720", 
  "landmark": "", 
  "state": "Rajasthan", 
  "address": "Sarojani Marg, Paradise Regency, C-69 ,C- Scheme, Jaipur, Rajasthan, 302001", 
  "lat": "26.91049957275390", 
  "sublocality": "Sarojani Marg"
 }, 
 {
  "city": "Bangalore", 
  "name": "ICICI Bank Ltd. - Bangalore - Malleshwaram - Wealth Branch", 
  "locality": "No 50, Renaissance Landmark, Malleshwaram", 
  "pincode": "560055", 
  "long": "77.56351470947270", 
  "landmark": "", 
  "state": "Karnataka", 
  "address": "17th Cross, 8th Main, No 50, Renaissance Landmark, Malleshwaram, Bangalore, Karnataka, 560055", 
  "lat": "13.007755279541", 
  "sublocality": "17th Cross, 8th Main"
 }, 
 {
  "city": "Semiliguda", 
  "name": "ICICI Bank Ltd. - Semiliguda", 
  "locality": "", 
  "pincode": "764036", 
  "long": "82.71211242675780", 
  "landmark": "Near Lemon Castle Hotel", 
  "state": "Orissa", 
  "address": "Semiliguda Main Road, Near Lemon Castle Hotel, Semiliguda, Orissa, 764036", 
  "lat": "18.81335639953610", 
  "sublocality": "Semiliguda Main Road"
 }, 
 {
  "city": "Chirimiri", 
  "name": "ICICI Bank Ltd. - Chirmiri", 
  "locality": "Haldibadi", 
  "pincode": "497451", 
  "long": "82.35420227050780", 
  "landmark": "", 
  "state": "Chhattisgarh", 
  "address": "Pankhadafai, Haldibadi, Chirimiri, Chhattisgarh, 497451", 
  "lat": "23.18812370300290", 
  "sublocality": "Pankhadafai"
 }, 
 {
  "city": "Sultan Bathery", 
  "name": "ICICI Bank Ltd. - Sulthanbathery", 
  "locality": "SB V/ 964", 
  "pincode": "673592", 
  "long": "76.25598144531250", 
  "landmark": "", 
  "state": "Kerala", 
  "address": "City Tower, Gandhi Junction, SB V/ 964, Sultan Bathery, Kerala, 673592", 
  "lat": "11.660608291626", 
  "sublocality": "City Tower, Gandhi Junction"
 }, 
 {
  "city": "Jammu", 
  "name": "ICICI Bank Ltd. - Kathua", 
  "locality": ", Kathua", 
  "pincode": "184102", 
  "long": "75.52980041503910", 
  "landmark": "Near SSP Office", 
  "state": "Jammu And Kashmir", 
  "address": "Ward Number 3, College Road, Near SSP Office, Kathua, Jammu, Jammu And Kashmir, 184102", 
  "lat": "32.37139892578130", 
  "sublocality": "Ward Number 3, College Road"
 }, 
 {
  "city": "Kolkata", 
  "name": "ICICI Bank Ltd. - Kolkata - Lansdowne", 
  "locality": "7 Sarat Bose Road", 
  "pincode": "700016", 
  "long": "88.354377746582", 
  "landmark": "", 
  "state": "West Bengal", 
  "address": "7 Sarat Bose Road, Kolkata, West Bengal, 700016", 
  "lat": "22.539623260498", 
  "sublocality": ""
 }, 
 {
  "city": "Chandrakona Road", 
  "name": "ICICI Bank Ltd. - Chandrakona Road", 
  "locality": "Mouza- Baradabcha - Post Office - Sat Bankura - Police Station - Garbeta", 
  "pincode": "721253", 
  "long": "87.35731506347660", 
  "landmark": "", 
  "state": "West Bengal", 
  "address": "Chandrakona Road, Mouza- Baradabcha - Post Office - Sat Bankura - Police Station - Garbeta, Chandrakona Road, West Bengal, 721253", 
  "lat": "22.857364654541", 
  "sublocality": "Chandrakona Road"
 }, 
 {
  "city": "Chandausi", 
  "name": "ICICI Bank Ltd. - Chandausi", 
  "locality": "Radha Krishna Plaza,Plot No 28,Nr Church,Chandausi Moradabad", 
  "pincode": "202412", 
  "long": "78.77960205078130", 
  "landmark": "", 
  "state": "Uttar Pradesh", 
  "address": "Fountain Chowk, Radha Krishna Plaza,Plot No 28,Nr Church,Chandausi Moradabad, Chandausi, Uttar Pradesh, 202412", 
  "lat": "28.44809913635250", 
  "sublocality": "Fountain Chowk"
 }, 
 {
  "city": "Faizabad", 
  "name": "ICICI Bank Ltd. - Faizabad - Civil Lines", 
  "locality": "V Square, Faizabad", 
  "pincode": "224001", 
  "long": "82.13376617431640", 
  "landmark": "", 
  "state": "Uttar Pradesh", 
  "address": "4101 Civil Lines, V Square, Faizabad, Faizabad, Uttar Pradesh, 224001", 
  "lat": "26.77244949340820", 
  "sublocality": "4101 Civil Lines"
 }, 
 {
  "city": "Chennai", 
  "name": "ICICI Bank Ltd. - Avadi", 
  "locality": "kamaraj nagar, Avadi", 
  "pincode": "600071", 
  "long": "80.09687805175780", 
  "landmark": "", 
  "state": "Tamil Nadu", 
  "address": "3 main road, kamaraj nagar, Avadi, Chennai, Tamil Nadu, 600071", 
  "lat": "13.11645317077640", 
  "sublocality": "3 main road"
 }, 
 {
  "city": "Neemrana", 
  "name": "ICICI Bank Ltd. - Neemrana", 
  "locality": "", 
  "pincode": "301705", 
  "long": "76.39845275878910", 
  "landmark": "Near Hotel Neemrana Palace", 
  "state": "Rajasthan", 
  "address": "NH-8, Neemrana Mode, Near Hotel Neemrana Palace, Neemrana, Rajasthan, 301705", 
  "lat": "27.97830200195310", 
  "sublocality": "NH-8, Neemrana Mode"
 }, 
 {
  "city": "Chandigarh", 
  "name": "ICICI Bank Ltd., - Chandigarh, Sector 10", 
  "locality": "SCO 27, Sector 10 D", 
  "pincode": "160010", 
  "long": "76.78800201416020", 
  "landmark": "", 
  "state": "Chandigarh", 
  "address": "SCO 27, Sector 10 D, Chandigarh, Chandigarh, 160010", 
  "lat": "30.75321769714360", 
  "sublocality": ""
 }, 
 {
  "city": "Korba", 
  "name": "ICICI Bank Ltd. - Kartala", 
  "locality": "Janpad Panchyat Buliding, Kartala", 
  "pincode": "495674", 
  "long": "82.95775604248050", 
  "landmark": "", 
  "state": "Chhattisgarh", 
  "address": "Shop Khasra No. 451/1, Janpad Panchyat Buliding, Kartala, Korba, Chhattisgarh, 495674", 
  "lat": "22.30013275146480", 
  "sublocality": "Shop Khasra No. 451/1"
 }, 
 {
  "city": "Sasthamcotta", 
  "name": "ICICI Bank Ltd. - Sasthamcotta", 
  "locality": "Sasthamcotta", 
  "pincode": "690521", 
  "long": "76.62431335449220", 
  "landmark": "", 
  "state": "Kerala", 
  "address": "Gurukulam Building, Manakkara, Sasthamcotta, Sasthamcotta, Kerala, 690521", 
  "lat": "9.04407024383545", 
  "sublocality": "Gurukulam Building, Manakkara"
 }, 
 {
  "city": "Santa Cruz", 
  "name": "ICICI Bank Ltd. - SantaCruz", 
  "locality": "Santacruz", 
  "pincode": "403005", 
  "long": "73.84445190429690", 
  "landmark": "", 
  "state": "Goa", 
  "address": "Shop No.3, 20, Bairo, Santacruz, Santa Cruz, Goa, 403005", 
  "lat": "15.47615242004390", 
  "sublocality": "Shop No.3, 20, Bairo"
 }, 
 {
  "city": "Tung", 
  "name": "ICICI Bank Ltd. - Tung", 
  "locality": "Miraj, Sangli", 
  "pincode": "416301", 
  "long": "74.47869873046880", 
  "landmark": "", 
  "state": "Maharashtra", 
  "address": "B. G. Mehendale Building, Miraj, Sangli, Tung, Maharashtra, 416301", 
  "lat": "16.93429946899410", 
  "sublocality": "B. G. Mehendale Building"
 }, 
 {
  "city": "Sanchore", 
  "name": "ICICI Bank Ltd. - Sanchore", 
  "locality": "Hadecha Bus Stand", 
  "pincode": "343041", 
  "long": "71.77209472656250", 
  "landmark": "", 
  "state": "Rajasthan", 
  "address": "Kasar Complex, Hadecha Bus Stand, Sanchore, Rajasthan, 343041", 
  "lat": "24.756441116333", 
  "sublocality": "Kasar Complex"
 }, 
 {
  "city": "Safidon", 
  "name": "ICICI Bank Ltd. - Safidon", 
  "locality": "Railway Road, Safidon", 
  "pincode": "126112", 
  "long": "76.66146087646480", 
  "landmark": "", 
  "state": "Haryana", 
  "address": "Shakti Complex, Railway Road, Safidon, Safidon, Haryana, 126112", 
  "lat": "29.39914131164550", 
  "sublocality": "Shakti Complex"
 }, 
 {
  "city": "Alathiour", 
  "name": "ICICI Bank Ltd. - Alathiyur", 
  "locality": "Cement Nagar, Ariyalur District", 
  "pincode": "621730", 
  "long": "79.25189971923830", 
  "landmark": "", 
  "state": "Tamil Nadu", 
  "address": "MCL Colony, Cement Nagar, Ariyalur District, Alathiour, Tamil Nadu, 621730", 
  "lat": "11.35560035705570", 
  "sublocality": "MCL Colony"
 }, 
 {
  "city": "New Delhi", 
  "name": "ICICI Bank Ltd. - New Delhi - Janakpuri - II", 
  "locality": "Janakpuri", 
  "pincode": "110058", 
  "long": "77.07839965820310", 
  "landmark": "", 
  "state": "Delhi", 
  "address": "C-1/4,, Janakpuri, New Delhi, Delhi, 110058", 
  "lat": "28.61790084838870", 
  "sublocality": "C-1/4,"
 }, 
 {
  "city": "Miraj", 
  "name": "ICICI Bank Ltd. - Miraj - Laxmi Market", 
  "locality": "Laxmi Market, Miraj", 
  "pincode": "416410", 
  "long": "74.65070343017580", 
  "landmark": "", 
  "state": "Maharashtra", 
  "address": "Shinde Building, Laxmi Market, Miraj, Miraj, Maharashtra, 416410", 
  "lat": "16.82229995727540", 
  "sublocality": "Shinde Building"
 }, 
 {
  "city": "Mangalore", 
  "name": "ICICI Bank Ltd. - Mangalore - Infosys Technology Ltd", 
  "locality": "Infosys Technologies Ltd, Infosys Mangala,", 
  "pincode": "575006", 
  "long": "74.83599090576170", 
  "landmark": "", 
  "state": "Karnataka", 
  "address": "Kulur Ferry Road, Kottara, Infosys Technologies Ltd, Infosys Mangala,, Mangalore, Karnataka, 575006", 
  "lat": "12.89556121826170", 
  "sublocality": "Kulur Ferry Road, Kottara"
 }, 
 {
  "city": "Chennai", 
  "name": "ICICI Bank Ltd. - Sholinganallur", 
  "locality": "Sholinganallur", 
  "pincode": "600119", 
  "long": "80.22779846191410", 
  "landmark": "", 
  "state": "Tamil Nadu", 
  "address": "Old Mahabalipuram Road, Sholinganallur, Chennai, Tamil Nadu, 600119", 
  "lat": "12.89618778228760", 
  "sublocality": "Old Mahabalipuram Road"
 }, 
 {
  "city": "Chakan", 
  "name": "ICICI Bank Ltd. - Chakan", 
  "locality": "Pune nasik highway, chakan", 
  "pincode": "410501", 
  "long": "73.863037109375", 
  "landmark": "", 
  "state": "Maharashtra", 
  "address": "Barawkar chambers, ambetthan chowk, Pune nasik highway, chakan, Chakan, Maharashtra, 410501", 
  "lat": "18.76026535034180", 
  "sublocality": "Barawkar chambers, ambetthan chowk"
 }, 
 {
  "city": "Taleigao", 
  "name": "ICICI Bank Ltd. - Taleigao", 
  "locality": "Shop No. 7, 8, 9 and 10, , ", 
  "pincode": "403002", 
  "long": "73.82012176513670", 
  "landmark": "Opposite Football groundNear Taleigao Panchyat", 
  "state": "Goa", 
  "address": "Ravalnath Estate, Shop No. 7, 8, 9 and 10, Opposite Football ground, Near Taleigao Panchyat, Taleigao, Goa, 403002", 
  "lat": "15.46859455108640", 
  "sublocality": "Ravalnath Estate"
 }, 
 {
  "city": "Pune", 
  "name": "ICICI Bank Ltd. - Pune - Kharadi", 
  "locality": "Goodwill Landmark, Kharadi Bypass Road", 
  "pincode": "411014", 
  "long": "73.85695648193360", 
  "landmark": "", 
  "state": "Maharashtra", 
  "address": "Office No. 2, Goodwill Landmark, Kharadi Bypass Road, Pune, Maharashtra, 411014", 
  "lat": "18.52047729492190", 
  "sublocality": "Office No. 2"
 }, 
 {
  "city": "Bangalore", 
  "name": "ICICI Bank Ltd. - Bangalore - Whitefield - Wealth Branch", 
  "locality": "No 32, Chaitanya Armadale, Whitefield", 
  "pincode": "560066", 
  "long": "77.74989318847660", 
  "landmark": "", 
  "state": "Karnataka", 
  "address": "Whitefield main Road, No 32, Chaitanya Armadale, Whitefield, Bangalore, Karnataka, 560066", 
  "lat": "12.96980857849120", 
  "sublocality": "Whitefield main Road"
 }, 
 {
  "city": "New Delhi", 
  "name": "ICICI Bank Ltd. - New Delhi - Defence Colony - D Block", 
  "locality": "D-22, Defence Colony", 
  "pincode": "110024", 
  "long": "77.23745727539060", 
  "landmark": "", 
  "state": "Delhi", 
  "address": "D-22, Defence Colony, New Delhi, Delhi, 110024", 
  "lat": "28.57374954223630", 
  "sublocality": ""
 }, 
 {
  "city": "Ernakulam", 
  "name": "ICICI Bank Ltd. - Kochi - Byepass NH", 
  "locality": "Samuel Sons Tower, NH - Byepass, Vennala P.O.", 
  "pincode": "682028", 
  "long": "76.31534576416020", 
  "landmark": "", 
  "state": "Kerala", 
  "address": "Samuel Sons Tower, NH - Byepass, Vennala P.O., Ernakulam, Kerala, 682028", 
  "lat": "9.99323272705078", 
  "sublocality": ""
 }, 
 {
  "city": "Hyderabad", 
  "name": "ICICI Bank Ltd. - Hyderabad - Banjara Hills - Wealth Branch", 
  "locality": "Road no 10, Banjara Hills", 
  "pincode": "500034", 
  "long": "78.44315338134770", 
  "landmark": "", 
  "state": "Telangana", 
  "address": "Road no 10, Banjara Hills, Hyderabad, Telangana, 500034", 
  "lat": "17.41567230224610", 
  "sublocality": ""
 }, 
 {
  "city": "Agra", 
  "name": "ICICI Bank Ltd. - Agra - Shahganj", 
  "locality": "5, Saket Colony, Shahganj", 
  "pincode": "282001", 
  "long": "77.983642578125", 
  "landmark": "", 
  "state": "Uttar Pradesh", 
  "address": "Nh 11 Agra, 5, Saket Colony, Shahganj, Agra, Uttar Pradesh, 282001", 
  "lat": "27.18054199218750", 
  "sublocality": "Nh 11 Agra"
 }, 
 {
  "city": "Bhopal", 
  "name": "ICICI Bank Ltd. - Bhopal - Arera Colony", 
  "locality": "First Floor, E - 7", 
  "pincode": "462016", 
  "long": "77.42759704589840", 
  "landmark": "", 
  "state": "Madhya Pradesh", 
  "address": "Arera Colony, Shahpura, First Floor, E - 7, Bhopal, Madhya Pradesh, 462016", 
  "lat": "23.21590042114260", 
  "sublocality": "Arera Colony, Shahpura"
 }, 
 {
  "city": "Kochi", 
  "name": "ICICI Bank Ltd. - Kochi - Palarivattom", 
  "locality": "Kanchenjunga Apartments", 
  "pincode": "682025", 
  "long": "76.31050109863280", 
  "landmark": "", 
  "state": "Kerala", 
  "address": "Civil Lane Road, Palarivattom, Kanchenjunga Apartments, Kochi, Kerala, 682025", 
  "lat": "10.00409984588620", 
  "sublocality": "Civil Lane Road, Palarivattom"
 }, 
 {
  "city": "Pune", 
  "name": "ICICI Bank Ltd. - Pune - Aundh - Nagardas Road", 
  "locality": "Aundh", 
  "pincode": "411027", 
  "long": "73.80698394775390", 
  "landmark": "", 
  "state": "Maharashtra", 
  "address": "Westend Riverview, Nagardas Road, Aundh, Pune, Maharashtra, 411027", 
  "lat": "18.56559371948240", 
  "sublocality": "Westend Riverview, Nagardas Road"
 }, 
 {
  "city": "Nashik", 
  "name": "ICICI Bank Ltd. - Nashik - Kalika Mandir", 
  "locality": ", Sethis City Plaza, Gadkari Chowk", 
  "pincode": "422001", 
  "long": "73.78308105468750", 
  "landmark": "Opp To Kalika Devi Mandir", 
  "state": "Maharashtra", 
  "address": "Old Mumbai-Agra Road, Opp To Kalika Devi Mandir, Sethis City Plaza, Gadkari Chowk, Nashik, Maharashtra, 422001", 
  "lat": "19.99247932434080", 
  "sublocality": "Old Mumbai-Agra Road"
 }, 
 {
  "city": "Gwalior", 
  "name": "ICICI Bank Ltd. - Maharaj Bada", 
  "locality": "More Bazar, Gandhi Market, Maharaj Bada", 
  "pincode": "474001", 
  "long": "78.14820098876950", 
  "landmark": "", 
  "state": "Madhya Pradesh", 
  "address": "More Bazar, Gandhi Market, Maharaj Bada, Gwalior, Madhya Pradesh, 474001", 
  "lat": "26.20129966735840", 
  "sublocality": ""
 }, 
 {
  "city": "Quilandy", 
  "name": "ICICI Bank Ltd. - Quilandy", 
  "locality": "", 
  "pincode": "673305", 
  "long": "75.68865966796880", 
  "landmark": "Opposite Park Residency Hotel", 
  "state": "Kerala", 
  "address": "Natioanl Highway, Kozhikode, Opposite Park Residency Hotel, Quilandy, Kerala, 673305", 
  "lat": "11.44783782958980", 
  "sublocality": "Natioanl Highway, Kozhikode"
 }, 
 {
  "city": "Vadodara", 
  "name": "ICICI Bank Ltd. - Vadodara - Gotri Road", 
  "locality": "Shreena, Amravati Co-Op Housing Society - 2, ", 
  "pincode": "390021", 
  "long": "73.13939666748050", 
  "landmark": "Opposite Reliance Petrol Pump", 
  "state": "Gujarat", 
  "address": "Gotri Main Road,, Shreena, Amravati Co-Op Housing Society - 2, Opposite Reliance Petrol Pump, Vadodara, Gujarat, 390021", 
  "lat": "22.31889915466310", 
  "sublocality": "Gotri Main Road,"
 }, 
 {
  "city": "Rajkot", 
  "name": "ICICI Bank Ltd. - Rajkot - Laxminagar", 
  "locality": "Aakash Complex, , Laxminagar", 
  "pincode": "360004", 
  "long": "70.78347015380860", 
  "landmark": "Near Rajnagar Chowk", 
  "state": "Gujarat", 
  "address": "Nana Mauva Main Road,, Aakash Complex, Near Rajnagar Chowk, Laxminagar, Rajkot, Gujarat, 360004", 
  "lat": "22.27961730957030", 
  "sublocality": "Nana Mauva Main Road,"
 }, 
 {
  "city": "Dholka", 
  "name": "ICICI Bank Ltd. - Dholka", 
  "locality": ", , Ahmedabad", 
  "pincode": "387810", 
  "long": "72.44808959960940", 
  "landmark": "Near New ApmcOpposite - Arts And Commerce College", 
  "state": "Gujarat", 
  "address": "Ambica Shopping Centre, Near New Apmc, Opposite - Arts And Commerce College, Ahmedabad, Dholka, Gujarat, 387810", 
  "lat": "22.72131538391110", 
  "sublocality": "Ambica Shopping Centre"
 }, 
 {
  "city": "Ahmedabad", 
  "name": "ICICI Bank Ltd. - Ahmedabad - Memnagar", 
  "locality": ", , Memnagar", 
  "pincode": "380009", 
  "long": "72.54389953613280", 
  "landmark": "Opposite Memnagar Fire StationNear Vijay Cross Roads", 
  "state": "Gujarat", 
  "address": "GCP Business Centre, Opposite Memnagar Fire Station, Near Vijay Cross Roads, Memnagar, Ahmedabad, Gujarat, 380009", 
  "lat": "23.04700088500980", 
  "sublocality": "GCP Business Centre"
 },