[
 {
  "city": "agra", 
  "name": "Ashok Fiat ", 
  "pin": "282007", 
  "long": "77.9065\",\r", 
  "state": "Uttar Pradesh", 
  "address": "11th KM Milestone, Agra-Mathura Road, NH-2, Artoni, Agra - 282007\",\r\",\r\",\r\",\r", 
  "lat": "27.224\",\r"
 }, 
 {
  "city": "Ahmednagar", 
  "name": "Sakeshwar Motors", 
  "pin": "414001", 
  "long": "74.67100\",\r", 
  "state": "Maharashtra", 
  "address": "Gut No 156/1, AT Chas,Near Jakat Naka\",\rNagar \u00e2\u0080\u0093 Pune Road\",\rKedgaon, Ahmednagar\",\r\",\r", 
  "lat": "19.046535\",\r"
 }, 
 {
  "city": "ahmedabad", 
  "name": "Dhhruvil Fiat", 
  "pin": "380054", 
  "long": "72.5228\",\r", 
  "state": "Gujarat", 
  "address": "Ganesh Meridian-G 001, Ground Floor, Nr. Sola Fly Over, Ahmedabad-380054\",\r\",\r\",\r\",\r", 
  "lat": "23.0690\",\r"
 }, 
 {
  "city": "ahmedabad", 
  "name": "Dhhruvil Fiat", 
  "pin": "380013", 
  "long": "72.49934\",\r", 
  "state": "GUJARAT", 
  "address": "Opposite Kensville Golf Club, Near S.K. Farm, Rajpath Club to Bopal Ring Road, Bodakdev, Ahmedabad-380054\",\r\",\r\",\r\",\r", 
  "lat": "23.035884\",\r"
 }, 
 {
  "city": "ahmedabad", 
  "name": "Bhaskara Fiat", 
  "pin": "380006", 
  "long": "72.563753\",\r", 
  "state": "Gujarat", 
  "address": "75, Bhram Khsatriya Society, Gujarat College Road, Ellisbridge, Ahmedabad-380006\",\r\",\r\",\r\",\r", 
  "lat": "23.021841\",\r"
 }, 
 {
  "city": "Ahmedabad", 
  "name": "Bhaskara Fiat", 
  "pin": "380054", 
  "long": "72.49246\",\r", 
  "state": "GUJARAT", 
  "address": "Near Ujala Circle, Besides Bavla Overbridge, Ahmedabad - Rajkot Highway, Ahmedabad - 382 210\",\r\",\r\",\r\",\r", 
  "lat": "22.979938\",\r"
 }, 
 {
  "city": "Ahmedabad", 
  "name": "Bhaskara Fiat", 
  "pin": "380054", 
  "long": "72.49266\",\r", 
  "state": "GUJARAT", 
  "address": "Near Ujala Circle, Besides Bavla Overbridge, Ahmedabad - Rajkot Highway, Ahmedabad - 382 210\",\r\",\r\",\r\",\r", 
  "lat": "22.979958\",\r"
 }, 
 {
  "city": "Ajmer", 
  "name": "ABS Fiat", 
  "pin": "", 
  "long": "74.65\",\r", 
  "state": "Rajasthan", 
  "address": "Parbatpura By Pass, Ajmer\",\r\",\r\",\r\",\r", 
  "lat": "26.4\",\r"
 }, 
 {
  "city": "Ajmer", 
  "name": "ABS Fiat", 
  "pin": "", 
  "long": "74.65\",\r", 
  "state": "Rajasthan", 
  "address": "Parbatpura By Pass, Ajmer\",\r\",\r\",\r\",\r", 
  "lat": "26.4\",\r"
 }, 
 {
  "city": "aligarh", 
  "name": "Brij Fiat", 
  "pin": "202001", 
  "long": "79.4000\",\r", 
  "state": "Uttar Pradesh", 
  "address": "6th KM, Bhukrawali, G T ROAD, Aligarh- 202001 (U.P)\",\r\",\r\",\r\",\r", 
  "lat": "27.3000\",\r"
 }, 
 {
  "city": "ambala", 
  "name": "Metro Motors P Ltd", 
  "pin": "133 001", 
  "long": "76.8343\",\r", 
  "state": "Haryana", 
  "address": "106, Railway Road, Ambala Cantt, Haryana -133 001\",\r\",\r\",\r\",\r", 
  "lat": "30.3391\",\r"
 }, 
 {
  "city": "Amravati", 
  "name": "Central Avenue Trading Co Pvt Ltd", 
  "pin": "444607", 
  "long": "77.766724\",\r", 
  "state": "Maharashtra", 
  "address": "Plot no 16-D, MIDC industrial area, old by pass, Amravati-444607\",\r\",\r\",\r\",\r", 
  "lat": "20.94092\",\r"
 }, 
 {
  "city": "Amritsar", 
  "name": "Wavess Fiat", 
  "pin": "143 001", 
  "long": "74.9223\",\r", 
  "state": "PUNJAB", 
  "address": "G.T. Road,Four Field, Near Bye Pass, Adjacent Force Motors, Amritsar  - 143 001\",\r\",\r\",\r\",\r", 
  "lat": "31.6157\",\r"
 }, 
 {
  "city": "aurangabad", 
  "name": "AADYAM AUTOMOBILES PVT LTD", 
  "pin": "431003", 
  "long": "75.36070\",\r", 
  "state": "MAHARASHTRA", 
  "address": "PLOT NO.4, HOTEL WINDSOR CASTLE COMPLEX, SECTOR C2 TOWN CENTER CIDCO, AURANGABAD -431003\",\r\",\r\",\r\",\r", 
  "lat": "19.88590\",\r"
 }, 
 {
  "city": "aurangabad", 
  "name": "Aadyam Automobiles", 
  "pin": "431003", 
  "long": "75.366339\",\r", 
  "state": "Maharashtra", 
  "address": "Plot No.F 21 3, Midc Chikhaltha,Next To Triveni Packing, Aurangabad -431003\",\r\",\r\",\r\",\r", 
  "lat": "19.877743\",\r"
 }, 
 {
  "city": "", 
  "name": "Ebony Automobiles Pvt Ltd", 
  "pin": "560032", 
  "long": "77.584206\",\r", 
  "state": "Karnataka", 
  "address": "#9,Bel Air Drive,Mekhri Circle,Bellary Road,Bangalore-560032\",\r\",\r\",\r\",\r", 
  "lat": "13.020611\",\r"
 }, 
 {
  "city": "", 
  "name": "Ebony Automobiles Pvt Ltd", 
  "pin": "", 
  "long": "77.617582\",\r", 
  "state": "Karnataka", 
  "address": "NO 76/1, Behind  Muneshwara Temple, Near Ring Road, Veeranapalya, Arabic College Post, Bangalore\",\r\",\r\",\r\",\r", 
  "lat": "13.032969\",\r"
 }, 
 {
  "city": "", 
  "name": "KHT Agencies Pvt Ltd", 
  "pin": "560071", 
  "long": "77.5833\",\r", 
  "state": "Karnataka", 
  "address": "Fiat Caffe, Plot # 92,Amar Jyothi Layout,Kormanagala Irr,Bangalore -560071\",\r\",\r\",\r\",\r", 
  "lat": "12.9833\",\r"
 }, 
 {
  "city": "", 
  "name": "KHT Agencies Pvt Ltd", 
  "pin": "560048", 
  "long": "77.725504\",\r", 
  "state": "Karnataka", 
  "address": "Kht Fiat,#6,Survey No.140,Mtb Compound,Hoody Village,Mahadevpura Post, Whitefield, Bangalore-560048\",\r\",\r\",\r\",\r", 
  "lat": "12.986525\",\r"
 }, 
 {
  "city": "", 
  "name": "Vecto Motors", 
  "pin": "560068", 
  "long": "77.630682\",\r", 
  "state": "Karnataka", 
  "address": "No.58, 1A, Singadandra, Hosur Main Road Bangalore 560068\",\r\",\r\",\r\",\r", 
  "lat": "12.899476\",\r"
 }, 
 {
  "city": "", 
  "name": "Vecto Motors", 
  "pin": "560059", 
  "long": "76.3315\",\r", 
  "state": "Karnataka", 
  "address": "26/1B2, 12th KM, Mysore Road, Bangalore-560059\",\r\",\r\",\r\",\r", 
  "lat": "12.6212\",\r"
 }, 
 {
  "city": "", 
  "name": "KHT Agencies Pvt Ltd ", 
  "pin": "560048", 
  "long": "77.68414\",\r", 
  "state": "Karnataka", 
  "address": "Kht Fiat #3C,Phase 1,Doddanekkundi Industrial Area,Survey No. 70,K R Puram,Hobli,Mahadevpura Post, Bangalore-560048\",\r\",\r\",\r\",\r", 
  "lat": "12.992348\",\r"
 }, 
 {
  "city": "bareily", 
  "name": "Pacific Motors", 
  "pin": "243001", 
  "long": "79.37163469\",\r", 
  "state": "UTTAR PRADESH", 
  "address": "7 K.M Stone, Opp.GITI, Rampur Road,C.B.Gunj,Bareilly -243502\",\r\",\r\",\r\",\r", 
  "lat": "28.3965955\",\r"
 }, 
 {
  "city": "belgaum", 
  "name": "Sutaria Fiat", 
  "pin": "590 016", 
  "long": "77.6841\",\r", 
  "state": "Karnataka", 
  "address": "Sutaria Fiat,  NH 4, Poona Bangalore Road, Gandhi Nagar, Belgaum 590 016\",\r\",\r\",\r\",\r", 
  "lat": "12.9923\",\r"
 }, 
 {
  "city": "belgaum", 
  "name": "Sutaria Fiat", 
  "pin": "590 006", 
  "long": "74.503001\",\r", 
  "state": "Karnataka", 
  "address": "Sutaria Fiat, Angol Main Road, Angol, Belgaum, Karnataka  590 006\",\r\",\r\",\r\",\r", 
  "lat": "15.826053\",\r"
 }, 
 {
  "city": "bellary", 
  "name": "Bhagyodaya Fiat", 
  "pin": "583 102", 
  "long": "76.9194\",\r", 
  "state": "Karnataka", 
  "address": "Kurahatti, Siruguppa Road, Opp Ksrtc Depot, Bellary  -583 102\",\r\",\r\",\r\",\r", 
  "lat": "15.156642\",\r"
 }, 
 {
  "city": "bellary", 
  "name": "Bhagyodaya Fiat", 
  "pin": "583 102", 
  "long": "76.9194\",\r", 
  "state": "Karnataka", 
  "address": "Kurahatti, Siruguppa Road, Opp Ksrtc Depot, Bellary  -583 102\",\r\",\r\",\r\",\r", 
  "lat": "15.156642\",\r"
 }, 
 {
  "city": "bhopal", 
  "name": "Sanghi Bros", 
  "pin": "452008", 
  "long": "77.23\",\r", 
  "state": "Madhya Pradesh", 
  "address": "2-3-4 BDA COLONY KOHEFIZA BHOPAL -462001\",\r\",\r\",\r\",\r", 
  "lat": "23.16\",\r"
 }, 
 {
  "city": "bhopal", 
  "name": "Sanghi Bros", 
  "pin": "462023", 
  "long": "77.454451\",\r", 
  "state": "Madhya Pradesh", 
  "address": "A-63 Industrial Area Govindpura, Bhopal -462023\",\r\",\r\",\r\",\r", 
  "lat": "23.259028\",\r"
 }, 
 {
  "city": "", 
  "name": "Shree Bharat Motors Ltd", 
  "pin": "752101", 
  "long": "85.88338\",\r", 
  "state": "ORISSA", 
  "address": "Plot No. 213/214, Nh-5, Pahal, Balianta, Bhubaneswar -752101\",\r\",\r\",\r\",\r", 
  "lat": "20.335291\",\r"
 }, 
 {
  "city": "Bijapur", 
  "name": "Rohan Fiat", 
  "pin": "586101", 
  "long": "75.731371\",\r", 
  "state": "KARNATAKA", 
  "address": "Near Ibrahimpur Railway Gate,\",\rGanesh Nagar, Manguli Road\",\r\",\r\",\r", 
  "lat": "16.802744\",\r"
 }, 
 {
  "city": "bilaspur", 
  "name": "Car Planet", 
  "pin": "495001", 
  "long": "82.138081\",\r", 
  "state": "Chattisgarh", 
  "address": "Near City Mall, Uslapur, Bilaspur\",\r\",\r\",\r\",\r", 
  "lat": "22.073575\",\r"
 }, 
 {
  "city": "bilaspur", 
  "name": "Car Planet", 
  "pin": "495001", 
  "long": "82.138081\",\r", 
  "state": "Chattisgarh", 
  "address": "Near City Mall, Uslapur, Bilaspur\",\r\",\r\",\r\",\r", 
  "lat": "22.073575\",\r"
 }, 
 {
  "city": "calicut", 
  "name": "KVR Motor Cars Pvt Ltd", 
  "pin": "673005", 
  "long": "75.7712\",\r", 
  "state": "Kerala", 
  "address": "No.1/1046 C,D & E KVR FIAT, Kannur Road, West Hill, Calicut-673005\",\r\",\r\",\r\",\r", 
  "lat": "11.2804\",\r"
 }, 
 {
  "city": "calicut", 
  "name": "KVR Motor Cars Pvt Ltd", 
  "pin": "673005", 
  "long": "75.7712\",\r", 
  "state": "Kerala", 
  "address": "No.1/1046 C,D & E KVR FIAT, Kannur Road, West Hill, Calicut-673005\",\r\",\r\",\r\",\r", 
  "lat": "11.2804\",\r"
 }, 
 {
  "city": "chandigarh", 
  "name": "Speed Fiat", 
  "pin": "160102", 
  "long": "76.804551\",\r", 
  "state": "Punjab", 
  "address": "Plot no. 664, Near Colony no. 4, Industrial area Phase-1, Chandigarh -160102\",\r\",\r\",\r\",\r", 
  "lat": "30.702003\",\r"
 }, 
 {
  "city": "chandigarh", 
  "name": "Speed Fiat", 
  "pin": "160002", 
  "long": "76.7988\",\r", 
  "state": "UT", 
  "address": "Plot Number 182/84, Industrial Area, Phase 1, Chandigarh- 160002\",\r\",\r \",\r\",\r", 
  "lat": "30.7035\",\r"
 }, 
 {
  "city": "chennai", 
  "name": "Ramkay Agencies", 
  "pin": "600042", 
  "long": "80.2193\",\r", 
  "state": "Tamil Nadu", 
  "address": "No.67, Velachery Main Road, Velachery East.,Chennai-600042\",\r\",\r\",\r\",\r", 
  "lat": "12.97268\",\r"
 }, 
 {
  "city": "chennai", 
  "name": "Ramkay Agencies", 
  "pin": "600096", 
  "long": "80.2193\",\r", 
  "state": "Tamil Nadu", 
  "address": "Plot No.134,Estate  1St Main Road,Developed Plot.,Perungudi Industrial Estate,Perungudi,Chennai-600096\",\r\",\r\",\r\",\r", 
  "lat": "12.97268\",\r"
 }, 
 {
  "city": "CHENNAI", 
  "name": "Ramkay Agencies ", 
  "pin": "600056", 
  "long": "80.126714\",\r", 
  "state": "Tamil Nadu", 
  "address": "No 2/4, Mount Trunk Road, Kattupakkam, Chennai - 600056\",\r\",\r\",\r \",\r", 
  "lat": "13.041389\",\r"
 }, 
 {
  "city": "chennai", 
  "name": "RDC Motor Private Limited", 
  "pin": "600035", 
  "long": "80.231057\",\r", 
  "state": "Tamil Nadu", 
  "address": "No:41, Cit Nagar First Main Road, Nandanam, Chennai-600035\",\r\",\r\",\r\",\r", 
  "lat": "13.027758\",\r"
 }, 
 {
  "city": "Chennai", 
  "name": "RDC Motor Private Limited", 
  "pin": "600032", 
  "long": "80.2311\",\r", 
  "state": "Tamil Nadu", 
  "address": "No:3, Balaji Nagar, First Street, Ekkaduthangal, Chennai-600032\",\r\",\r\",\r\",\r", 
  "lat": "13.0278\",\r"
 }, 
 {
  "city": "chennai", 
  "name": "RDC Motor Private Limited", 
  "pin": "600058", 
  "long": "80.2180\",\r", 
  "state": "Tamil Nadu", 
  "address": "No.72B,Developed Plots, 14Th Street, Ambattur Industrial Estate, Ambattur Near Wavin Signal  -600058 \",\r\",\r\",\r\",\r", 
  "lat": "13.0920\",\r"
 }, 
 {
  "city": "CHENNAI", 
  "name": "RDC Motor Private Limited", 
  "pin": "600 040", 
  "long": "80.217951\",\r", 
  "state": "Tamil Nadu", 
  "address": "Q Block, Plot No: 104, 3Rd Avenue, Anna Nagar, Chennai - 600 040\",\r\",\r\",\r\",\r", 
  "lat": "13.092037\",\r"
 }, 
 {
  "city": "kochi", 
  "name": "Hyson Fiat", 
  "pin": "682025", 
  "long": "76.3144\",\r", 
  "state": "Kerala", 
  "address": "Hyson Fiat., 32/1163D, Bypass Road, Palarivattam P.O., Cochin-682025\",\r\",\r\",\r\",\r", 
  "lat": "9.9998\",\r"
 }, 
 {
  "city": "kochi", 
  "name": "Hyson Fiat", 
  "pin": "682 024", 
  "long": "76.31888\",\r", 
  "state": "Kerala", 
  "address": "Hyson Fiat., 33/6C1, C2 & C3, Pavoor Road, Padivattom. P.O., Cochin-682024\",\r\",\r\",\r\",\r", 
  "lat": "10.009713\",\r"
 }, 
 {
  "city": "kochi", 
  "name": "Pinnacle Fiat", 
  "pin": "682033", 
  "long": "76.3167\",\r", 
  "state": "Kerala", 
  "address": "Pinnacle Motor Works Pvt Ltd, NH-47, Chengampuzha Nagar P.O, South Kalamassery, Cochin-682033\",\r\",\r\",\r\",\r", 
  "lat": "10.0422\",\r"
 }, 
 {
  "city": "", 
  "name": "CAI Industries Pvt", 
  "pin": "641037", 
  "long": "76.987456\",\r", 
  "state": "Tamil Nadu", 
  "address": "Lakshmi Mills Campus, 686,Avinashi Road,Pappanaickenpalayam, Coimbatore - 641037\",\r\",\r\",\r\",\r", 
  "lat": "11.012581\",\r"
 }, 
 {
  "city": "coimbatore", 
  "name": "CAI Industries Pvt", 
  "pin": "641004", 
  "long": "77.015748\",\r", 
  "state": "Tamil Nadu", 
  "address": "Sf.No.336/B-1,Opp.Nava India, Avinashi Road, Coimbatore - 641004\",\r\",\r\",\r\",\r", 
  "lat": "11.026882\",\r"
 }, 
 {
  "city": "", 
  "name": "Manakular Automobiles", 
  "pin": "607003", 
  "long": "79.760687\",\r", 
  "state": "Tamilnadu", 
  "address": "Manakular Automobiles, No:103 Imperial road, Chellankuppam, Cuddalore port\",\r\",\r\",\r\",\r", 
  "lat": "11.742627\",\r"
 }, 
 {
  "city": "dehradun", 
  "name": "Texla Towers Ltd", 
  "pin": "248001", 
  "long": "78.0428\",\r", 
  "state": "Uttarakhand", 
  "address": "13-A, Rajpur Road (New Empire Cinema), Dehradun, 248001\",\r\",\r\",\r\",\r", 
  "lat": "30.3253\",\r"
 }, 
 {
  "city": "dimapur", 
  "name": "Saramati Motors", 
  "pin": "797112", 
  "long": "93.7428\",\r", 
  "state": "Assam", 
  "address": "Saramati Motors, Nh-29 Naharbari Dimapur-797112 Nagaland\",\r\",\r\",\r\",\r", 
  "lat": "25.8698\",\r"
 }, 
 {
  "city": "", 
  "name": "MARVEL AUTOS", 
  "pin": "638009", 
  "long": "77.69085\",\r", 
  "state": "Tamil Nadu", 
  "address": "101,NACHIMUTHU NAGAR,VEERAPNAPALAYAM PRIVU,ERODE-638009\",\r\",\r\",\r\",\r", 
  "lat": "11.326412\",\r"
 }, 
 {
  "city": "", 
  "name": "DRS Motors", 
  "pin": "121 003", 
  "long": "76.9922\",\r", 
  "state": "NCR", 
  "address": "12/7,Delhi Mathura Road,Near Crown Interize Mall,Sarai-Khwaja, Faridabad, Hariana -121 003\",\r\",\r\",\r\",\r", 
  "lat": "30.5244\",\r"
 }, 
 {
  "city": "ghaziabad", 
  "name": "MAHINDRA FIRST CHOICE SERVICES LTD", 
  "pin": " 201 007", 
  "long": "77.377396\",\r", 
  "state": "Uttar Pradesh", 
  "address": "B-9, Site - 2, Industrial Area, Loni Road\",\r\",\r\",\r\",\r", 
  "lat": "28.689383\",\r"
 }, 
 {
  "city": "", 
  "name": "Auto Industries ", 
  "pin": "403602", 
  "long": "73.9728\",\r", 
  "state": "Goa", 
  "address": "SHOP NO 6, CROSSROADS AVENUE # VI,ARLEM-FATORDA,MARGAO - GOA -403602\",\r\",\r\",\r\",\r", 
  "lat": "15.297\",\r"
 }, 
 {
  "city": "", 
  "name": "Auto Industries ", 
  "pin": "403602", 
  "long": "73.9728\",\r", 
  "state": "Goa", 
  "address": "SHOP NO 6, CROSSROADS AVENUE # VI,ARLEM-FATORDA,MARGAO - GOA -403602\",\r\",\r\",\r\",\r", 
  "lat": "15.297\",\r"
 }, 
 {
  "city": "", 
  "name": "Torque Motors", 
  "pin": "122001", 
  "long": "77.0605\",\r", 
  "state": "Haryana", 
  "address": "93, Idc Building,Sector-14, Old Mg Road, -122001\",\r\",\r\",\r\",\r", 
  "lat": "28.4758\",\r"
 }, 
 {
  "city": "", 
  "name": "Torque Motors ", 
  "pin": "122 001", 
  "long": "77.0605\",\r", 
  "state": "Haryana", 
  "address": "Kila No. 9/11 Opp.Huda Nursery,Purana Delhi ByPass Road, Near Atul Katariya Chowk,Sukrali Enclave,Sec-17A, -122 001\",\r\",\r\",\r\",\r", 
  "lat": "28.4758\",\r"
 }, 
 {
  "city": "", 
  "name": "Ganesha Fiat", 
  "pin": "177401", 
  "long": "76.5616\",\r", 
  "state": "Hamirpur", 
  "address": "Nh-88 , V.P.O. Didwin Tikkar , Distt.Hamirpur (H.P.) -177401\",\r\",\r\",\r\",\r", 
  "lat": "31.6266\",\r"
 }, 
 {
  "city": "", 
  "name": "Mahadev Motors", 
  "pin": "125001", 
  "long": "75.7699\",\r", 
  "state": "Haryana", 
  "address": " Plot no-24, Old Industrial Area, Delhi Road, Hisar 125001\",\r\",\r\",\r\",\r", 
  "lat": "29.1303\",\r"
 }, 
 {
  "city": "", 
  "name": "Cargo Fiat", 
  "pin": "146001", 
  "long": "75.9104\",\r", 
  "state": "PUNJAB", 
  "address": "Near Ambay Valley, Bharwain Road Hoshiarpur -146001\",\r\",\r\",\r\",\r", 
  "lat": "31.5527\",\r"
 }, 
 {
  "city": "", 
  "name": "Manickbag Fiat", 
  "pin": "580031", 
  "long": "75.13\",\r", 
  "state": "Karnataka", 
  "address": "Billangadi Complex Opp: P C Jabins College, Vidyanagr Hubli-580031\",\r\",\r\",\r\",\r", 
  "lat": "15.34\",\r"
 }, 
 {
  "city": "", 
  "name": "Manickbag Fiat", 
  "pin": "580 025", 
  "long": "75.16804\",\r", 
  "state": "Karnataka", 
  "address": "Block No 278, Bhairedevarkoppa, Dharwar Road, Hubli -580 025\",\r\",\r\",\r\",\r", 
  "lat": "15.6513\",\r"
 }, 
 {
  "city": "", 
  "name": "A V Motors", 
  "pin": "500018", 
  "long": "78.444199\",\r", 
  "state": "TELANGANA", 
  "address": "B-3, Industrial Estate, Sanathnagar, Hyderabad 500018\",\r\",\r\",\r\",\r", 
  "lat": "17.458396\",\r"
 }, 
 {
  "city": "", 
  "name": "A V Motors", 
  "pin": "500003", 
  "long": "78.479976\",\r", 
  "state": "TELANGANA", 
  "address": "D.No.: 1-8-303/45, Minister Road, Secunderabad - 500003\",\r\",\r\",\r\",\r", 
  "lat": "17.439672\",\r"
 }, 
 {
  "city": "", 
  "name": "Butta Automotive", 
  "pin": "500034", 
  "long": "78.438099\",\r", 
  "state": "Andhra Pradesh", 
  "address": "Plotno:83&84,Punnaiah Plaza,Road No.2 Banjarahills,Hyderabad -500034\",\r\",\r\",\r\",\r", 
  "lat": "17.418281\",\r"
 }, 
 {
  "city": "", 
  "name": "Butta Automotive", 
  "pin": "500 033", 
  "long": "78.411086\",\r", 
  "state": "Andhra Pradesh", 
  "address": "Plot No:1356/A, H.No: 8-2-293/82/1356/A,Road No.45,Jubliee Hills, Hyderabad -500 033\",\r\",\r\",\r\",\r", 
  "lat": "17.4236115\",\r"
 }, 
 {
  "city": "imphal", 
  "name": "NR Traders", 
  "pin": "795003", 
  "long": "72.9896\",\r", 
  "state": "Manipur", 
  "address": "NH 102, Canchipur Opposite Manipur University, Imphal, PIN - 795003\",\r\",\r\",\r\",\r", 
  "lat": "19.7874\",\r"
 }, 
 {
  "city": "", 
  "name": "Sanghi Bros", 
  "pin": "452010", 
  "long": "75.908157\",\r", 
  "state": "Madhya Pradesh", 
  "address": "Sanghi Brothers (Indore) Pvt Ltd, Fiat Workshop. Behind Jaguar Show Room, Mr-11, Mangal Compound , Piplia Kumar, Dewas Naka, Indore (Mp) -452010\",\r\",\r\",\r\",\r", 
  "lat": "22.771596\",\r"
 }, 
 {
  "city": "", 
  "name": "SANGHI BROS", 
  "pin": "452001", 
  "long": "75.53\",\r", 
  "state": "Madhya Pradesh", 
  "address": "SAHGHI BROTHERS(INDORE)PVT.LTD, G-2 SHEKHAR CENTRAL, 4-5 MANORAMAGANJ, PALASIA SQUARE, A.B ROAD, INDORE(M.P) -452001\",\r\",\r\",\r\",\r", 
  "lat": "22.43\",\r"
 }, 
 {
  "city": "", 
  "name": "ABS Fiat", 
  "pin": "302012", 
  "long": "75.823\",\r", 
  "state": "Rajasthan", 
  "address": "4-5 Near hotel Chetram, Jhotwara, Jaipur 302012\",\r\",\r\",\r\",\r", 
  "lat": "26.926\",\r"
 }, 
 {
  "city": "", 
  "name": "ABS Fiat", 
  "pin": "", 
  "long": "75.823\",\r", 
  "state": "Rajasthan", 
  "address": "Near Jamuna Garden , Sita Bari, Tonk Road, Jaipur\",\r\",\r\",\r\",\r", 
  "lat": "26.926\",\r"
 }, 
 {
  "city": "", 
  "name": "ABS Fiat", 
  "pin": "303012", 
  "long": "75.753834\",\r", 
  "state": "Rajasthan", 
  "address": "238-240 Udyog Nagar, Jhotwara, Jaipur -303012\",\r\",\r\",\r\",\r", 
  "lat": "26.952331\",\r"
 }, 
 {
  "city": "", 
  "name": "SGPL Fiat", 
  "pin": "302 001", 
  "long": "75.793\",\r", 
  "state": "Rajasthan", 
  "address": "Santosh Garage Building, 6, Gopal Bari, Ajmer Road, Jaipur -302 001\",\r\",\r\",\r\",\r", 
  "lat": "26.9145\",\r"
 }, 
 {
  "city": "", 
  "name": "Cargo Fiat", 
  "pin": "144001", 
  "long": "75.6520\",\r", 
  "state": "Punjab", 
  "address": "GT Road, Paragpur, Jalandhar 144001\",\r\",\r\",\r\",\r", 
  "lat": "31.2955\",\r"
 }, 
 {
  "city": "", 
  "name": "National Fiat", 
  "pin": "180011", 
  "long": "74.8903\",\r", 
  "state": "Jammu ", 
  "address": "Nh1 A, Bye Pass Road, Greater Kailash Chowk, Jammu -180011\",\r\",\r\",\r\",\r", 
  "lat": "32.6743\",\r"
 }, 
 {
  "city": "", 
  "name": "K", 
  "pin": "832109", 
  "long": "86.1452\",\r", 
  "state": "JHARKHAND", 
  "address": "1839, Pankaj Bhawan, Tata Kandra Main Road Adityapur, Jamshedpur, Jharkhand\",\r\",\r\",\r\",\r", 
  "lat": "22.7914\",\r"
 }, 
 {
  "city": "", 
  "name": "K", 
  "pin": "832109", 
  "long": "86.1452\",\r", 
  "state": "JHARKHAND", 
  "address": "B-35, Phase 2, Industrial Area, Adityapur, Jamshedpur - 832109\",\r\",\r\",\r\",\r", 
  "lat": "22.7914\",\r"
 }, 
 {
  "city": "jhunjhunun", 
  "name": "ABS Fiat", 
  "pin": "", 
  "long": "75.823\",\r", 
  "state": "Rajasthan", 
  "address": "Hawai Patti, Near Railway Station, Jhunjhunu\",\r\",\r\",\r\",\r", 
  "lat": "26.926\",\r"
 }, 
 {
  "city": "", 
  "name": "PC Bhandari Fiat", 
  "pin": "342006", 
  "long": "73.0049\",\r", 
  "state": "Rajasthan", 
  "address": "E-329/A, Basni 2nd Phase, Jodhpur, Rajasthan -342006\",\r\",\r\",\r\",\r", 
  "lat": "26.2361\",\r"
 }, 
 {
  "city": "", 
  "name": "Popular Auto Service", 
  "pin": "533001", 
  "long": "82.233046\",\r", 
  "state": "Andhra Pradesh", 
  "address": "D/no:- 21-1-3 Jawhar street, Kakinada \",\r\",\r\",\r\",\r", 
  "lat": "16.955400\",\r"
 }, 
 {
  "city": "", 
  "name": "KVR Prestige Cars Pvt Ltd", 
  "pin": "670018", 
  "long": "75.4083\",\r", 
  "state": "Kerala", 
  "address": "XI-193A, 193B, 193C & 193D, KVR FIAT, Kizhuthally, Thazhe Chovva PO., Kannur-670018\",\r\",\r\",\r\",\r", 
  "lat": "11.8591\",\r"
 }, 
 {
  "city": "", 
  "name": "KVR Prestige Cars Pvt Ltd", 
  "pin": "670018", 
  "long": "75.4083\",\r", 
  "state": "Kerala", 
  "address": "XI-193A, 193B, 193C & 193D, KVR FIAT, Kizhuthally, Thazhe Chovva PO., Kannur-670018\",\r\",\r\",\r\",\r", 
  "lat": "11.8591\",\r"
 }, 
 {
  "city": "", 
  "name": "Smart Motors", 
  "pin": "208001", 
  "long": "80.343118\",\r", 
  "state": "Uttar Pradesh", 
  "address": "Plot No. 01 , 14/75 , Civil Lines , Kanpur-208001\",\r\",\r\",\r\",\r", 
  "lat": "26.482566\",\r"
 }, 
 {
  "city": "", 
  "name": "Smart Motors", 
  "pin": "208008", 
  "long": "80.420609\",\r", 
  "state": "Uttar Pradesh", 
  "address": "Plot No. B-4 , Chakeri , G. T. Road ,  (Near CNG Petrol Pump), Kanpur - 208008\",\r\",\r\",\r\",\r", 
  "lat": "26.378798\",\r"
 }, 
 {
  "city": "", 
  "name": "Smart Motors ", 
  "pin": "208008", 
  "long": "80.343118\",\r", 
  "state": "Uttar Pradesh", 
  "address": "Plot No: B-4, Chakeri (Near CNG Petrol Pump ), Kanpur-208008\",\r\",\r\",\r\",\r", 
  "lat": "26.482566\",\r"
 }, 
 {
  "city": "", 
  "name": "Metro Motors Pvt Ltd", 
  "pin": "132037", 
  "long": "76.9804\",\r", 
  "state": "Haryana", 
  "address": "112/60, K.M. Mile Stone, Near Arpana Hospital, G.T. Road, V.P.O- Kutail, Karnal- 132037\",\r\",\r\",\r\",\r", 
  "lat": "29.5881\",\r"
 }, 
 {
  "city": "", 
  "name": "AAARON FIAT", 
  "pin": "", 
  "long": "74.235292\",\r", 
  "state": "MAHARASHTRA", 
  "address": "1245/85, SHIVAJI UDYAM NAGAR-NEAR SHAHU MILL\",\r\",\r\",\r\",\r", 
  "lat": "16.696003\",\r"
 }, 
 {
  "city": "kolkata", 
  "name": "Austin Fiat", 
  "pin": "700087", 
  "long": "88.3508\",\r", 
  "state": "West Bengal", 
  "address": "19, Jawahar Lal Nehru Road, Kolkata-700087\",\r\",\r\",\r\",\r", 
  "lat": "22.5602\",\r"
 }, 
 {
  "city": "kolkata", 
  "name": "Austin Fiat", 
  "pin": "700014", 
  "long": "88.3508\",\r", 
  "state": "West Bengal", 
  "address": "173, A.J.C. Bose Road, Kolkata - 700014\",\r\",\r\",\r\",\r", 
  "lat": "22.5602\",\r"
 }, 
 {
  "city": "", 
  "name": "Garodia Automobiles Pvt Ltd", 
  "pin": "700010", 
  "long": "88.3908\",\r", 
  "state": "West Bengal", 
  "address": "94, Hemchandra Naskar Road, Phoolbagan (Kakurgachi) Kolkata-700010\",\r\",\r\",\r\",\r", 
  "lat": "22.5693\",\r"
 }, 
 {
  "city": "kolkata", 
  "name": "Garodia Automobiles Pvt Ltd", 
  "pin": "700 107", 
  "long": "88.40961\",\r", 
  "state": "West Bengal", 
  "address": "Anandapur (Kasba), P.O Haltu, Kolkata -  700 107 (Behind Ruby General Hospital)\",\r\",\r\",\r\",\r", 
  "lat": "22.51486\",\r"
 }, 
 {
  "city": "kolkata", 
  "name": "Bose Automobiles", 
  "pin": "700 103", 
  "long": "88.3416\",\r", 
  "state": "West Bengal", 
  "address": "Bakeshwar, ONGC More, P.O. Nepal Gunje, P.S. Bishnpur\",\r\",\r\",\r\",\r", 
  "lat": "22.430544\",\r"
 }, 
 {
  "city": "", 
  "name": "Daiwik Cars Pvt Ltd", 
  "pin": "691020", 
  "long": "76.641196\",\r", 
  "state": "Kerala", 
  "address": "Daiwik Cars Pvt Ltd, NH Bypass, Maverom, Thattamala, Kollam-691020\",\r\",\r\",\r\",\r", 
  "lat": "8.873865\",\r"
 }, 
 {
  "city": "korba", 
  "name": "Car Planet", 
  "pin": "", 
  "long": "82.70541\",\r", 
  "state": "Chattisgarh", 
  "address": "Near Hotel Maharaja Palace, Transport Nagar, Korba\",\r\",\r\",\r\",\r", 
  "lat": "22.356282\",\r"
 }, 
 {
  "city": "", 
  "name": "Mundhra Fiat", 
  "pin": "324005", 
  "long": "75.8653\",\r", 
  "state": "Rajasthan", 
  "address": "G-10, AUTOMOBILE ZONE, ROAD NO.5, IPIA KOTA -324005\",\r\",\r\",\r\",\r", 
  "lat": "25.1345\",\r"
 }, 
 {
  "city": "", 
  "name": "Marikar Kottayam", 
  "pin": "686013", 
  "long": "76.5196\",\r", 
  "state": "Kerala", 
  "address": "Marikar Engineers Pvt Ltd, 44/406 A, M C Road, Kodimatha, Natagom P.O. KOTTAYAM-686013\",\r\",\r\",\r\",\r", 
  "lat": "9.5682\",\r"
 }, 
 {
  "city": "kunnamkulam", 
  "name": "Hyson Fiat", 
  "pin": "680519", 
  "long": "76.087424\",\r", 
  "state": "Kerala", 
  "address": "Near Akkara Hospital, Kambipalam, Calicut Road, Akkikavu. P. O., Kunnamkulam,Thrissur-680519\",\r\",\r\",\r\",\r", 
  "lat": "10.685045\",\r"
 }, 
 {
  "city": "", 
  "name": "Classic Fiat", 
  "pin": "226020", 
  "long": "80.8539\",\r", 
  "state": "Uttar Pradesh", 
  "address": "Daliganj Railway Crossing, Near Central Bank Of India, Sitapur Road, Lucknow-226020\",\r\",\r\",\r\",\r", 
  "lat": "26.881\",\r"
 }, 
 {
  "city": "", 
  "name": "Dada Fiat", 
  "pin": "141008", 
  "long": "75.8780\",\r", 
  "state": "PUNJAB", 
  "address": "Opp. Miltary Camp, Near Dholewal Chowk, (Adjacent to HP Petrol Pump), G.T. Road,  Ludhiana -141008\",\r\",\r\",\r\",\r", 
  "lat": "30.8906\",\r"
 }, 
 {
  "city": "", 
  "name": "Forza Italia", 
  "pin": "625004", 
  "long": "78.092523\",\r", 
  "state": "Tamil Nadu", 
  "address": "58A, TPK Road, Madurai, Tamil Nadu 625004\",\r\",\r\",\r\",\r", 
  "lat": "9.902061\",\r"
 }, 
 {
  "city": "", 
  "name": "Daiwik Cars Pvt Ltd", 
  "pin": "676517", 
  "long": "76.078252\",\r", 
  "state": "Kerala", 
  "address": "Daiwik Fiat,Calicut Road, Konompara, Malappuram-676517\",\r\",\r\",\r\",\r", 
  "lat": "11.062537\",\r"
 }, 
 {
  "city": "mandi", 
  "name": "Ram Hari Cars Pvt Ltd", 
  "pin": "175021", 
  "long": "76.9441\",\r", 
  "state": "HIMACHAL PRADESH", 
  "address": "Vill Rani Ki Bain,PO Gutkar, Mandi, Himachal Pradesh 175021\",\r\",\r\",\r\",\r", 
  "lat": "31.6653\",\r"
 }, 
 {
  "city": "mangalore", 
  "name": "Hanuman Cars", 
  "pin": "575013", 
  "long": "74.8397\",\r", 
  "state": "Karnataka", 
  "address": "NH 66, Kuloor Post, Mangalore 575013\",\r\",\r\",\r\",\r", 
  "lat": "12.8785\",\r"
 }, 
 {
  "city": "meerut", 
  "name": "G S Fiat", 
  "pin": "250 103", 
  "long": "80.343118\",\r", 
  "state": "Uttar Pradesh", 
  "address": "Delhi Road Partapur Meerut (U.P) 250 103\",\r\",\r\",\r\",\r", 
  "lat": "26.482566\",\r"
 }, 
 {
  "city": "", 
  "name": "Bhaskara Automotion Pvt Ltd", 
  "pin": "384001", 
  "long": "76.561593\",\r", 
  "state": "Gujarat", 
  "address": "Opp. Essar Petrol Pump, Nr. Starline Maruti Showroom, Nagalpur, Mehsana Highway, Mehsana -384001\",\r\",\r\",\r\",\r", 
  "lat": "31.626637\",\r"
 }, 
 {
  "city": "", 
  "name": "Wheels Fiat", 
  "pin": "160 055", 
  "long": "76.7018\",\r", 
  "state": "PUNJAB", 
  "address": "D-144, Industrial Area Phase-7,Sector-73, Mohali, Punjab -160 055\",\r\",\r\",\r\",\r", 
  "lat": "30.7168\",\r"
 }, 
 {
  "city": "", 
  "name": "Esskay Motors Pvt", 
  "pin": "400 025", 
  "long": "72.831629\",\r", 
  "state": "Maharashtra", 
  "address": "Motilal Oswal Tower, Junction of Gokhale Road & Sayani Road, Prabhadevi, Mumbai - 400 025\",\r\",\r\",\r\",\r", 
  "lat": "19.011103\",\r"
 }, 
 {
  "city": "", 
  "name": "Torrid Motors", 
  "pin": "400069", 
  "long": "72.883321\",\r", 
  "state": "Maharashtra", 
  "address": "349, Business Point, Times Square, Western Express Highway, Andheri East,  Mumbai -400069\",\r\",\r\",\r\",\r", 
  "lat": "19.107975\",\r"
 }, 
 {
  "city": "", 
  "name": "Torrid Motors", 
  "pin": "400063", 
  "long": "72.832253\",\r", 
  "state": "Maharashtra", 
  "address": "Plot No. 11, Cama Industrial Estate, Near Hub Mall, Off Western Express Highway, Goregaon East Mumbai-400063\",\r\",\r\",\r\",\r", 
  "lat": "19.135454\",\r"
 }, 
 {
  "city": "", 
  "name": "R S MOTORS", 
  "pin": "400067", 
  "long": "72.830869\",\r", 
  "state": "Maharashtra", 
  "address": "Krishna Compound, Near Hindustan Naka, M.G Road, Next to Kaustubh Hotel, Kandivali (W), Mumbai 400067\",\r\",\r\",\r\",\r", 
  "lat": "19.209944\",\r"
 }, 
 {
  "city": "", 
  "name": "V", 
  "pin": "401208", 
  "long": "72.831629\",\r", 
  "state": "Maharashtra", 
  "address": "Kaddu Industrial Estate, Jasraj Building 3, Near NH Highway8, Sativali Phata, Vasai Road, Vasai Estate, Thane\",\r\",\r\",\r\",\r", 
  "lat": "19.011103\",\r"
 }, 
 {
  "city": "Muvatupuzha", 
  "name": "Pinnacle Fiat ", 
  "pin": "682033", 
  "long": "76.574556\",\r", 
  "state": "Kerala", 
  "address": "Pinnacle Motor Works Pvt Ltd, Velloorkunnam, Market P.O, Muvattupuzha - 686673\",\r\",\r\",\r\",\r", 
  "lat": "9.990661\",\r"
 }, 
 {
  "city": "", 
  "name": "Urs Kar Service Centre Pvt Ltd", 
  "pin": "570017", 
  "long": "76.3858\",\r", 
  "state": "Karnataka", 
  "address": "#201, Hunsur main Road Hinkal, Mysore, Karnataka 570017\",\r\",\r\",\r\",\r", 
  "lat": "12.1825\",\r"
 }, 
 {
  "city": "", 
  "name": "Jaika Cars Pvt Ltd", 
  "pin": "440 012", 
  "long": "79.088095\",\r", 
  "state": "Maharashtra", 
  "address": "SALASAR SQUARE, PLOT 41/A, HUMPYARD ROAD, CONGRESS NAGAR T POINT, DHANTOLI, NAGPUR -440 012\",\r\",\r\",\r\",\r", 
  "lat": "21.147979\",\r"
 }, 
 {
  "city": "", 
  "name": "Jaika Cars Pvt Ltd", 
  "pin": "440026", 
  "long": "78.9993388\",\r", 
  "state": "Maharashtra", 
  "address": "Jaika Cars Plot No 92/93 A, Wangara layout, Pile nadi , Nagpur , 440026 \",\r\",\r\",\r\",\r", 
  "lat": "21.1368646\",\r"
 }, 
 {
  "city": "", 
  "name": "Kant Agencies Nanded Pvt Ltd", 
  "pin": "431606", 
  "long": "77.343174\",\r", 
  "state": "Maharashtra", 
  "address": "Opp.Spinning Mill, Nanded Hyderabad Road, Wajegaon, Nanded-431606\",\r\",\r\",\r\",\r", 
  "lat": "19.143923\",\r"
 }, 
 {
  "city": "", 
  "name": "Future Cars", 
  "pin": "422009", 
  "long": "73.4800\",\r", 
  "state": "Maharashtra", 
  "address": "PLOT NO.3+4,NEAR HOTEL SAI PALACE,MUMBAI-AGRA HIGHWAY.NASIK -422009\",\r\",\r\",\r\",\r", 
  "lat": "20.0000\",\r"
 }, 
 {
  "city": "", 
  "name": "Balaji Autoworld", 
  "pin": "400709", 
  "long": "73.0166\",\r", 
  "state": "Maharashtra", 
  "address": "C 7/4  TTC Industrial Area, Pawane, Turbhe, Navi Mumbai, Maharashtra 400709\",\r\",\r\",\r\",\r", 
  "lat": "19.087\",\r"
 }, 
 {
  "city": "", 
  "name": "Balaji Autoworld", 
  "pin": "400706", 
  "long": "73.029\",\r", 
  "state": "Maharashtra", 
  "address": "Plot No.35, Sector 13, Near Dr. D Y Patil Stadium, Next To Bank Of India Colony, Uran Phata, Navi Mumbai -400706\",\r\",\r\",\r\",\r", 
  "lat": "19.03497\",\r"
 }, 
 {
  "city": "", 
  "name": "Kashyap Fiat", 
  "pin": "110020", 
  "long": "77.267814\",\r", 
  "state": "DELHI", 
  "address": "Plot No. 46, Okhla Industrial Estate,Phase III, New Delhi 110020\",\r\",\r\",\r\",\r", 
  "lat": "28.549291\",\r"
 }, 
 {
  "city": "", 
  "name": "Tuli Fiat", 
  "pin": "110 052", 
  "long": "77.1672\",\r", 
  "state": "DELHI", 
  "address": "B-72/4, Wazirpur Industrial Area,  New Delhi -110 052\",\r\",\r\",\r\",\r", 
  "lat": "28.7011\",\r"
 }, 
 {
  "city": "", 
  "name": "Tuli Fiat", 
  "pin": "110 052", 
  "long": "77.1672\",\r", 
  "state": "DELHI", 
  "address": "B-72/4, Wazirpur Industrial Area,  New Delhi -110 052\",\r\",\r\",\r\",\r", 
  "lat": "28.7011\",\r"
 }, 
 {
  "city": "", 
  "name": "Thrust Motors", 
  "pin": "110015", 
  "long": "77.83091\",\r", 
  "state": "Delhi", 
  "address": "71/1, Shivaji Marg, Opp. Haldiram, Najafgarh Road, New Delhi, Delhi 110015\",\r\",\r\",\r\",\r", 
  "lat": "28.3929\",\r"
 }, 
 {
  "city": "", 
  "name": "Thrust Motors", 
  "pin": "110015", 
  "long": "77.83091\",\r", 
  "state": "Delhi", 
  "address": "71/1, Shivaji Marg, Opp. Haldiram, Najafgarh Road, New Delhi, Delhi 110015\",\r\",\r\",\r\",\r", 
  "lat": "28.3929\",\r"
 }, 
 {
  "city": "", 
  "name": "Kashyap Vehicle Works Pvt Ltd", 
  "pin": "110 092", 
  "long": "77.267814\",\r", 
  "state": "DELHI", 
  "address": "85, Patparganj Industrial Area,\u00c3\u0083\u00e2\u0080\u009a New Delhi 110 092\",\r\",\r\",\r\",\r", 
  "lat": "28.549291\",\r"
 }, 
 {
  "city": "", 
  "name": "Kashyap Vehicles Works Pvt Ltd", 
  "pin": "201 305", 
  "long": "77.10104\",\r", 
  "state": "Uttar Pradesh", 
  "address": "C-18, Noida Phase-II,Dadri Noida Road,Distt - Gautam Budh Nagar- Up -201 305\",\r\",\r\",\r\",\r", 
  "lat": "28.7008\",\r"
 }, 
 {
  "city": "", 
  "name": "Kashyap Fiat", 
  "pin": "201310", 
  "long": "77.5118\",\r", 
  "state": "Uttar Pradesh", 
  "address": "8 & 9 A, Omaxe Mall, NRI Center, near Pari Chowk, Greater Noida, UP - 201310\",\r\",\r\",\r\",\r", 
  "lat": "28.4639\",\r"
 }, 
 {
  "city": "", 
  "name": "Oberoi MotoTech Ltd", 
  "pin": "201301", 
  "long": "77.378315\",\r", 
  "state": "NCR", 
  "address": "A-184, Sector 63, Noida, Uttar Pradesh 201301 (opp. Fortis Hosp.)\",\r\",\r\",\r\",\r", 
  "lat": "28.621917\",\r"
 }, 
 {
  "city": "", 
  "name": "Oberoi MotoTech Ltd ", 
  "pin": "210 310", 
  "long": " 77.3274\",\r", 
  "state": "NCR", 
  "address": "B-12, Sector 1, Noida -210 310\",\r\",\r\",\r\",\r", 
  "lat": "28.586\",\r"
 }, 
 {
  "city": "", 
  "name": "Hyson Fiat", 
  "pin": "678001", 
  "long": "76.660277\",\r", 
  "state": "Kerala", 
  "address": "Matha Kovil Road, Sulthanpet, Palakkad-678001\",\r\",\r\",\r\",\r", 
  "lat": "10.773112\",\r"
 }, 
 {
  "city": "panipat", 
  "name": "Metro Motors Pvt Ltd", 
  "pin": "132103", 
  "long": "76.9755\",\r", 
  "state": "Haryana", 
  "address": "Plot No.- 59-60, GLF, Guru Gobind Singh Complex, Opp. New Anaj Mandi,GT Road, Panipat-132103\",\r\",\r\",\r\",\r", 
  "lat": "29.3688\",\r"
 }, 
 {
  "city": "", 
  "name": "CAR MENDERS", 
  "pin": "410206", 
  "long": "73.115044\",\r", 
  "state": "Maharashtra", 
  "address": "Property No.442/443,Khare Vada, V.K.ROAD,Panvel, Maharastra 410206\",\r\",\r\",\r\",\r", 
  "lat": "18.989486\",\r"
 }, 
 {
  "city": "patiala", 
  "name": "PMG Automobiles Pvt Ltd", 
  "pin": "147021", 
  "long": "76.4871\",\r", 
  "state": "Punjab", 
  "address": "Rajpura Road, Bhadurgarh, Patiala-147021\",\r\",\r\",\r\",\r", 
  "lat": "30.3803\",\r"
 }, 
 {
  "city": "patiala", 
  "name": "PMG Automobiles Pvt Ltd", 
  "pin": "140401", 
  "long": "76.418489\",\r", 
  "state": "Punjab", 
  "address": "B-15, PSIEC Industrial Focal Point, Patiala-140401\",\r\",\r\",\r\",\r", 
  "lat": "30.375808\",\r"
 }, 
 {
  "city": "Patna", 
  "name": "RRUKMANI GROUP AUTOMOBILES INDIA PRIVATE LIMITED", 
  "pin": "800020", 
  "long": "85.14560883\",\r", 
  "state": "Bihar", 
  "address": "Near Kumhrar Park,\",\rKumhrar, Main Road\",\rKankarbagh\",\r\",\r", 
  "lat": "25.6027148\",\r"
 }, 
 {
  "city": "", 
  "name": "Manakular Automobiles", 
  "pin": "605 007", 
  "long": "77.7017\",\r", 
  "state": "Tamil Nadu", 
  "address": "R.S.No 49, No.1, Cuddalore Main Road, Ariyankuppam, Puducherry 605 007\",\r\",\r\",\r\",\r", 
  "lat": "11.332\",\r"
 }, 
 {
  "city": "", 
  "name": "Fiat Caffe", 
  "pin": "411001", 
  "long": "73.900266\",\r", 
  "state": "Maharashtra", 
  "address": "PINNACLE BLDG, BETWEEN LANE NO. 5& 6, NORTH MAIN ROAD,KOREGAON PARK -411001\",\r\",\r\",\r\",\r", 
  "lat": "18.539594\",\r"
 }, 
 {
  "city": "", 
  "name": "Fiat Caffe", 
  "pin": "411039", 
  "long": "73.900266\",\r", 
  "state": "Maharashtra", 
  "address": "Sr.No.170, Dnyaneshwar Colony,Next To Central Bank Of India,Akurdi Chowk, Old Mumbai-Pune Highway,Akurdi,Pune, Maharashtra-411039\",\r\",\r\",\r\",\r", 
  "lat": "18.539594\",\r"
 }, 
 {
  "city": "pune", 
  "name": "Jay Vijay Motors Pvt Ltd", 
  "pin": "411005", 
  "long": "73.853714\",\r", 
  "state": "Maharashtra", 
  "address": "110/5+6 Shivaji Road, Opp PMC Shivajinagar\",\r\",\r\",\r\",\r", 
  "lat": "18.525084\",\r"
 }, 
 {
  "city": "", 
  "name": "PANDIT AUTOMOTIVE PVT LTD", 
  "pin": "411 005", 
  "long": "73.4800\",\r", 
  "state": "Maharashtra", 
  "address": "BHOSALE MYSTIQA, OPP. SYMBIOSIS CENTRE FOR DISTANCE LEARNING, OPP. DEEP BUNGLOW CHOWK, MODEL COLONY,SHIVAJI NAGAR, PUNE -411 005\",\r\",\r\",\r\",\r", 
  "lat": "18.3000\",\r"
 }, 
 {
  "city": "", 
  "name": "PANDIT AUTOMOTIVE PVT LTD", 
  "pin": "411 021", 
  "long": "73.771602\",\r", 
  "state": "Maharashtra", 
  "address": "Survey No. 19/1, Next to  Suryadatta Institute, opp. DSK Raanwara, Pune Mumbai Express Bypass,A/P Bavdhan Buduruk, Tal Mulshi, Dist. Pune -411 021\",\r\",\r\",\r\",\r", 
  "lat": "18.520054\",\r"
 }, 
 {
  "city": "", 
  "name": "Sky Moto Automobiles Pvt Ltd", 
  "pin": "411019", 
  "long": "73.48\",\r", 
  "state": "Maharashtra", 
  "address": "SKY MOTO AUTOMOBILES PRIVATE LIMITED,PLOT NO. 28/22, D-II BLOCK, MIDC CHINCHWAD,KSB CHOWK, TELCO ROAD,CHINCHWAD,PUNE-411019.\",\r\",\r\",\r\",\r", 
  "lat": "18.38\",\r"
 }, 
 {
  "city": "pune", 
  "name": "Sky Moto Automobiles Pvt Ltd", 
  "pin": "411039", 
  "long": "73.79032\",\r", 
  "state": "Maharashtra", 
  "address": "Sr.No.170, Dnyaneshwar Colony,Next To Central Bank Of India,Akurdi Chowk, Old Mumbai-Pune Highway,Akurdi,Pune, Maharashtra-411039.\",\r\",\r\",\r\",\r", 
  "lat": "18.64521\",\r"
 }, 
 {
  "city": "", 
  "name": "L R AUTO", 
  "pin": "492 001", 
  "long": "81.6015\",\r", 
  "state": "Chattisgarh", 
  "address": "Opposite Deen Dayal Police Station ,Ring Road No 1, Raipura Raipur -492 001\",\r\",\r\",\r\",\r", 
  "lat": "21.2348\",\r"
 }, 
 {
  "city": "", 
  "name": "Pride Fiat", 
  "pin": "360004", 
  "long": "70.7995\",\r", 
  "state": "Gujarat", 
  "address": "Gondal-Ahmedabad Bypass Circle, Beside of flyover, National Highway 8-B, Gondal Road, Rajkot 360004\",\r\",\r\",\r\",\r", 
  "lat": "22.2702\",\r"
 }, 
 {
  "city": "ranchi", 
  "name": "K", 
  "pin": "834001", 
  "long": "86.0001\",\r", 
  "state": "Jharkhand", 
  "address": "K P Automobiles Pvt.Ltd H.B Road Lalpur Chowk,  Ranchi-834001, Jharkhand\",\r\",\r\",\r\",\r", 
  "lat": "23.0747\",\r"
 }, 
 {
  "city": "", 
  "name": "Sahil Fiat", 
  "pin": "124001", 
  "long": "76.608841\",\r", 
  "state": "Haryana", 
  "address": "Ground Floor, Lakhiram Square, Jasbir Colony, Opp. Gulab Restuarant,  Main Delhi Road,  Rohtak-124001\",\r\",\r\",\r\",\r", 
  "lat": "28.897147\",\r"
 }, 
 {
  "city": "", 
  "name": "Speed Fiat", 
  "pin": "140108", 
  "long": "76.5419\",\r", 
  "state": "Punjab", 
  "address": "NH-21, Chotti Gandhon, Chandigarh Road, Rangilpur, Ropar-140108\",\r\",\r\",\r\",\r", 
  "lat": "30.9221\",\r"
 }, 
 {
  "city": "", 
  "name": "KRISHNA MOTORS", 
  "pin": "769041", 
  "long": "84.772002\",\r", 
  "state": "Orissa", 
  "address": "Plot No 5 P,Near Pahari Kanta,Vedvyas,Rourkella, Orissa 769041\",\r\",\r\",\r\",\r", 
  "lat": "22.236704\",\r"
 }, 
 {
  "city": "", 
  "name": "The True Sai Motors", 
  "pin": "636004", 
  "long": "78.137302\",\r", 
  "state": "Tamil Nadu", 
  "address": "Sri Lakshmi Complex,4/22, Omalur Main Road,Swaranapuri,Salem - 636004\",\r\",\r\",\r\",\r", 
  "lat": "11.671729\",\r"
 }, 
 {
  "city": "", 
  "name": "The True Sai Motors", 
  "pin": "636004", 
  "long": "78.137276\",\r", 
  "state": "TAMILNADU", 
  "address": "Omalur Main Road, Near Hotel Grand Estancia , Narasodhipatti , Salem 636004\",\r\",\r\",\r\",\r", 
  "lat": "11.671729\",\r"
 }, 
 {
  "city": "", 
  "name": "KRISHNA FIAT", 
  "pin": "415003", 
  "long": "74.024258\",\r", 
  "state": "MAHARASHTRA", 
  "address": "SR.NO.522B/523B/513,AT.POST.WADHE, SATARA,415003\",\r\",\r\",\r\",\r", 
  "lat": "17.721862\",\r"
 }, 
 {
  "city": "", 
  "name": "ABS Fiat", 
  "pin": "303321", 
  "long": "75.15\",\r", 
  "state": "Rajasthan", 
  "address": "Jaipur Jhunjhunu By Pass, Near Rto, Sikar - Rajasthan - 303321\",\r\",\r\",\r\",\r", 
  "lat": "27.62\",\r"
 }, 
 {
  "city": "", 
  "name": "Ganesha Fiat", 
  "pin": "173211", 
  "long": "77.089267\",\r", 
  "state": "Himachal Pradesh", 
  "address": "NH. 22 , Broag Bypass , Anji, Tehsil & Dist. Solan 173211\",\r\",\r\",\r\",\r", 
  "lat": "30.89077\",\r"
 }, 
 {
  "city": "", 
  "name": "Sahil Fiat", 
  "pin": "131001", 
  "long": "77.017989\",\r", 
  "state": "Haryana", 
  "address": "E-56/57, Main Rohtak Road, Sonepat, Haryana 131001\",\r\",\r\",\r\",\r", 
  "lat": "28.974684\",\r"
 }, 
 {
  "city": "", 
  "name": "Sukrit Fiat", 
  "pin": "395007", 
  "long": "72.778802\",\r", 
  "state": "GUJARAT", 
  "address": "G1 & G2, Milagro Mile Stone, Near Vir Narmad South Gujarat University, Someshwar Cross Road, Udhna Magdalla Road, Vesu, Surat-395007\",\r\",\r\",\r\",\r", 
  "lat": "21.153257\",\r"
 }, 
 {
  "city": "", 
  "name": "Sukrit Fiat", 
  "pin": "394210", 
  "long": "72.849578\",\r", 
  "state": "GUJARAT", 
  "address": "Plot No 47, Road No 3, Opp: Dgvcl Office, Near Kantilal Chunilal Sons Pvt. Ltd. Near Dindoli Bridge, Udhna Udyog Nagar,Udhna, Surat-394210\",\r\",\r\",\r\",\r", 
  "lat": "21.167791\",\r"
 }, 
 {
  "city": "thalassery", 
  "name": "KVR Prestige Cars Pvt Ltd", 
  "pin": "670101", 
  "long": "75.4995\",\r", 
  "state": "Kerala", 
  "address": "Near Saidarapalli, Main Road, Thalassery, Kannur-670101\",\r\",\r\",\r\",\r", 
  "lat": "11.7404\",\r"
 }, 
 {
  "city": "", 
  "name": "Balaji Autoworld", 
  "pin": "400607", 
  "long": "72.9896\",\r", 
  "state": "Maharashtra", 
  "address": "Mohan Mill Compound, Ghod Bunder Road, Thane West 400607\",\r\",\r\",\r\",\r", 
  "lat": "19.7874\",\r"
 }, 
 {
  "city": "", 
  "name": "Hyson Fiat", 
  "pin": "680014", 
  "long": "76.2560\",\r", 
  "state": "Kerala", 
  "address": "Nh-47 Bypass, Kuttanelloor P. O., Thrissur-680014\",\r\",\r\",\r\",\r", 
  "lat": "10.4834\",\r"
 }, 
 {
  "city": "", 
  "name": "Rehoboth Cars Pvt Ltd", 
  "pin": "627001", 
  "long": "77.717115\",\r", 
  "state": "Tamil Nadu", 
  "address": "Ts 1634/3 North Bypass Road, Udayarpatti, Tirunelveli -627001\",\r\",\r\",\r\",\r", 
  "lat": "8.740964\",\r"
 }, 
 {
  "city": "", 
  "name": "Marvel Motors", 
  "pin": "620010", 
  "long": "78.698753\",\r", 
  "state": "Tamil Nadu", 
  "address": "No:9A, Chennai By pass road, Old Palpannai, Ariyamangalam, Trichy- 620010\",\r\",\r\",\r\",\r", 
  "lat": "10.80289\",\r"
 }, 
 {
  "city": "", 
  "name": "Mohandas Auto Cars India ", 
  "pin": "695029", 
  "long": "76.8766\",\r", 
  "state": "KERALA", 
  "address": "Mohandasfiat, NH Bypass, Anayara.P.O, Trivandrum-695029\",\r\",\r\",\r\",\r", 
  "lat": "8.5615\",\r"
 }, 
 {
  "city": "", 
  "name": "Rehoboth Cars Pvt Ltd", 
  "pin": "628008", 
  "long": "77.7171\",\r", 
  "state": "Tamil Nadu", 
  "address": "2/218 - A, Madurai By-Pass Road, Mdathoor, Tuticorin - 628008\",\r\",\r\",\r\",\r", 
  "lat": "8.792095\",\r"
 }, 
 {
  "city": "", 
  "name": "DSB Motors", 
  "pin": "313 002", 
  "long": "73.6915\",\r", 
  "state": "Rajasthan", 
  "address": "Hiran Magri, Sector No.6, Udaipur, Rajasthan  -313 002\",\r\",\r\",\r\",\r", 
  "lat": "24.5713\",\r"
 }, 
 {
  "city": "", 
  "name": "Bhaskara Fiat", 
  "pin": "390002", 
  "long": "73.1785\",\r", 
  "state": "Gujarat", 
  "address": "Ground Floor, Indraprasth Complex, Opp Kathiawadi Restaurant, Nizampura Main Road, Baroda-390002\",\r\",\r\",\r\",\r", 
  "lat": "22.3403\",\r"
 }, 
 {
  "city": "", 
  "name": "Bhaskara Fiat", 
  "pin": "390002", 
  "long": "72.563753\",\r", 
  "state": "GUJARAT", 
  "address": "Nr. Essar Petrol Pump, Sokhada Road, Gsfc Circle, Baroda-390002\",\r\",\r\",\r\",\r", 
  "lat": "23.021841\",\r"
 }, 
 {
  "city": "", 
  "name": "MAHINDRA FIRST CHOICE SERVICES LTD", 
  "pin": "396195", 
  "long": "72.90387\",\r", 
  "state": "GUJARAT", 
  "address": "NH08, Plot No. 81/8/A, GIDC Vapi Industrial area, Village Vapi Taluka Pardi\",\rDist. Valsad\",\r\",\r\",\r", 
  "lat": "20.327692\",\r"
 }, 
 {
  "city": "", 
  "name": "F M Motors", 
  "pin": "221010", 
  "long": "82.9796\",\r", 
  "state": "UTTAR PRADESH", 
  "address": "B-38/46 G, Raman Niwas Campus, Opp.-Akashwani, Mahamoorganj, Varanasi 221010\",\r\",\r\",\r\",\r", 
  "lat": "25.3046\",\r"
 }, 
 {
  "city": "chennai", 
  "name": "RDC Motor Private Limited", 
  "pin": "632009", 
  "long": "79.1333\",\r", 
  "state": "Tamil Nadu", 
  "address": "No.9.Indra nagar,Chennai Bangalore Road,Perumugai,Vellore-632009\",\r\",\r\",\r\",\r", 
  "lat": "12.9202\",\r"
 }, 
 {
  "city": "Vijayawada", 
  "name": "TURBO AUTOMOTIVES PVT LTD", 
  "pin": "521108", 
  "long": "80.705267\",\r", 
  "state": "ANDHRA PRADESH", 
  "address": "NH-5 Main Road, Opp. Enikepadu Panchayat Office, Enikepadu - 521108\",\r\",\r\",\r\",\r", 
  "lat": "16.514346\",\r"
 }
]